<?xml version="1.0" encoding="UTF-8"?>
<kml xmlns="http://www.opengis.net/kml/2.2" xmlns:gx="http://www.google.com/kml/ext/2.2" xmlns:kml="http://www.opengis.net/kml/2.2" xmlns:atom="http://www.w3.org/2005/Atom">
<Document>
    <name>Camino Via de la Plata</name>
    <description><![CDATA[From Sevilla to Santiago<br><br>R: pilgrims public hostel.<br>P: pilgrims private hostel.<br>A: youth hostel.<br>T: Alba Plata tourist hostel.<br>
    C: campsite.<br>H: hotel, inn, lodging house...<br>FR: off the route.<br><br><a href="http://www.ElCaminoSantiago.com"><b>www.ElCaminoSantiago.com</a></b><br>Complete Resources for the<br>Pilgrimage Road to Santiago<br><br><b><a href="http://www.ElCaminoSantiago.com/Camino-Santiago-Maps.htm">Maps for El Camino Santiago</a><br><br><a href="http://www.ElCaminoSantiago.com/Weather-Camino-Santiago.htm">Weather for El Camino Santiago</a></b><br><br>]]></description>
	<StyleMap id="Camino4">
	</StyleMap>
	<Style id="Camino4">
		<IconStyle>
			<Icon>
			<href>http://www.elcaminosantiago.com/WebArt/Shell-3-032.png</href>
			</Icon>
		</IconStyle>
		<LabelStyle>
			<color>ff00ffff</color>
		</LabelStyle>
		<LineStyle>
			<color>ff00ffff</color>
			<width>3</width>
		</LineStyle>
	</Style>
    <Folder>
      <name>Places on the route</name>
      <visibility>1</visibility>
      <open>1</open>
      <Placemark>
        <name>Sevilla</name>
        <description><![CDATA[Where: cathedral<br>Accommodation: A, H, C<br>From Sevilla: 0.0 km<br>To Santiago de Compostela: 983.4 km<br>Altitude: 20 m<br>Latitude: 37.385441º<br>Longitude: -5.992096º]]></description>
        <styleUrl>#Camino4</styleUrl>
        <Point>
          <coordinates>-5.992096,37.385441,20</coordinates>
        </Point>
      </Placemark>
      <Placemark>
        <name>Puente de Triana</name>
        <description><![CDATA[Where: Río Guadalquivir<br>From Sevilla: 1.3 km<br>To Santiago de Compostela: 982.1 km<br>Altitude: 1 m<br>Latitude: 37.387074º<br>Longitude: -6.001453º]]></description>
        <styleUrl>#Camino4</styleUrl>
        <Point>
          <coordinates>-6.001453,37.387074,1</coordinates>
        </Point>
      </Placemark>
      <Placemark id="wp3">
        <name>Camas</name>
        <description><![CDATA[Accommodation: R, H<br>From Sevilla: 5.2 km<br>To Santiago de Compostela: 978.2 km<br>Altitude: 14 m<br>Latitude: 37.401196º<br>Longitude: -6.034455º]]></description>
        <styleUrl>#Camino4</styleUrl>
        <Point>
          <coordinates>-6.034455,37.401196,14</coordinates>
        </Point>
      </Placemark>
      <Placemark id="wp4">
        <name>Santiponce</name>
        <description><![CDATA[Accommodation: H<br>From Sevilla: 9.6 km<br>To Santiago de Compostela: 973.8 km<br>Altitude: 23 m<br>Latitude: 37.438168º<br>Longitude: -6.040313º]]></description>
        <styleUrl>#Camino4</styleUrl>
        <Point>
          <coordinates>-6.040313,37.438168,23</coordinates>
        </Point>
      </Placemark>
      <Placemark id="wp5">
        <name>Itálica</name>
        <description><![CDATA[From Sevilla: 10.4 km<br>To Santiago de Compostela: 973.0 km<br>Altitude: 14 m<br>Latitude: 37.444111º<br>Longitude: -6.044219º]]></description>
        <styleUrl>#Camino4</styleUrl>
        <Point>
          <coordinates>-6.044219,37.444111,14</coordinates>
        </Point>
      </Placemark>
      <Placemark id="wp6">
        <name>Eucalyptus</name>
        <description><![CDATA[From Sevilla: 12.3 km<br>To Santiago de Compostela: 971.1 km<br>Altitude: 10 m<br>Latitude: 37.459110º<br>Longitude: -6.042373º]]></description>
        <styleUrl>#Camino4</styleUrl>
        <Point>
          <coordinates>-6.042373,37.459110,10</coordinates>
        </Point>
      </Placemark>
      <Placemark id="wp7">
        <name>Arroyo de los Molinos</name>
        <description><![CDATA[Where: ford<br>From Sevilla: 16.3 km<br>To Santiago de Compostela: 967.1 km<br>Altitude: 8 m<br>Latitude: 37.494320º<br>Longitude: -6.049004º]]></description>
        <styleUrl>#Camino4</styleUrl>
        <Point>
          <coordinates>-6.049004,37.494320,8</coordinates>
        </Point>
      </Placemark>
      <Placemark id="wp8">
        <name>Guillena</name>
        <description><![CDATA[Where: hostal Francés<br>Accommodation: R, H<br>From Sevilla: 22.6 km<br>To Santiago de Compostela: 960.8 km<br>Altitude: 23 m<br>Latitude: 37.542084º<br>Longitude: -6.056278º]]></description>
        <styleUrl>#Camino4</styleUrl>
        <Point>
          <coordinates>-6.056278,37.542084,23</coordinates>
        </Point>
      </Placemark>
      <Placemark id="wp18">
        <name>Castilblanco de los Arroyos</name>
        <description><![CDATA[Where: pilgrims hostel<br>Accommodation: R, H<br>From Sevilla: 40.4 km<br>To Santiago de Compostela: 943.0 km<br>Altitude: 341 m<br>Latitude: 37.670036º<br>Longitude: -5.987849º]]></description>
        <styleUrl>#Camino4</styleUrl>
        <Point>
          <coordinates>-5.987849,37.670036,341</coordinates>
        </Point>
      </Placemark>
      <Placemark id="wp25">
        <name>Finca El Berrocal</name>
        <description><![CDATA[From Sevilla: 57.1 km<br>To Santiago de Compostela: 926.3 km<br>Altitude: 508 m<br>Latitude: 37.782410º<br>Longitude: -6.086269º]]></description>
        <styleUrl>#Camino4</styleUrl>
        <Point>
          <coordinates>-6.086269,37.782410,508</coordinates>
        </Point>
      </Placemark>
      <Placemark id="wp26">
        <name>Forest house</name>
        <description><![CDATA[From Sevilla: 58.6 km<br>To Santiago de Compostela: 924.8 km<br>Altitude: 457 m<br>Latitude: 37.791161º<br>Longitude: -6.075311º]]></description>
        <styleUrl>#Camino4</styleUrl>
        <Point>
          <coordinates>-6.075311,37.791161,457</coordinates>
        </Point>
      </Placemark>
      <Placemark id="wp27">
        <name>Arroyo de los Zahurdones</name>
        <description><![CDATA[Where: ford<br>From Sevilla: 61.9 km<br>To Santiago de Compostela: 921.5 km<br>Altitude: 364 m<br>Latitude: 37.813705º<br>Longitude: -6.072483º]]></description>
        <styleUrl>#Camino4</styleUrl>
        <Point>
          <coordinates>-6.072483,37.813705,364</coordinates>
        </Point>
      </Placemark>
      <Placemark id="wp34">
        <name>Cerro del Calvario</name>
        <description><![CDATA[From Sevilla: 68.1 km<br>To Santiago de Compostela: 915.3 km<br>Altitude: 543 m<br>Latitude: 37.864628º<br>Longitude: -6.078913º]]></description>
        <styleUrl>#Camino4</styleUrl>
        <Point>
          <coordinates>-6.078913,37.864628,543</coordinates>
        </Point>
      </Placemark>
      <Placemark id="wp36">
        <name>Almadén de la Plata</name>
        <description><![CDATA[Where: pilgrims hostel<br>Accommodation: R, H<br>From Sevilla: 69.8 km<br>To Santiago de Compostela: 913.6 km<br>Altitude: 472 m<br>Latitude: 37.874184º<br>Longitude: -6.086548º]]></description>
        <styleUrl>#Camino4</styleUrl>
        <Point>
          <coordinates>-6.086548,37.874184,472</coordinates>
        </Point>
      </Placemark>
      <Placemark id="wp38">
        <name>Casa de la Postura</name>
        <description><![CDATA[From Sevilla: 72.1 km<br>To Santiago de Compostela: 911.3 km<br>Altitude: 469 m<br>Latitude: 37.888069º<br>Longitude: -6.082156º]]></description>
        <styleUrl>#Camino4</styleUrl>
        <Point>
          <coordinates>-6.082156,37.888069,469</coordinates>
        </Point>
      </Placemark>
      <Placemark id="wp39">
        <name>Arroyo de la Víbora</name>
        <description><![CDATA[Where: bridge<br>From Sevilla: 73.0 km<br>To Santiago de Compostela: 910.4 km<br>Altitude: 478 m<br>Latitude: 37.894379º<br>Longitude: -6.081770º]]></description>
        <styleUrl>#Camino4</styleUrl>
        <Point>
          <coordinates>-6.081770,37.894379,478</coordinates>
        </Point>
      </Placemark>
      <Placemark id="wp42">
        <name>El Real de la Jara</name>
        <description><![CDATA[Where: plaza de Andalucía<br>Accommodation: R, H<br>From Sevilla: 85.8 km<br>To Santiago de Compostela: 897.6 km<br>Altitude: 462 m<br>Latitude: 37.950603º<br>Longitude: -6.155855º]]></description>
        <styleUrl>#Camino4</styleUrl>
        <Point>
          <coordinates>-6.155855,37.950603,462</coordinates>
        </Point>
      </Placemark>
      <Placemark id="wp43">
        <name>Castillo de las Torres</name>
        <description><![CDATA[From Sevilla: 86.7 km<br>To Santiago de Compostela: 896.7 km<br>Altitude: 452 m<br>Latitude: 37.956813º<br>Longitude: -6.159699º]]></description>
        <styleUrl>#Camino4</styleUrl>
        <Point>
          <coordinates>-6.159699,37.956813,452</coordinates>
        </Point>
      </Placemark>
      <Placemark id="wp45">
        <name>Ermita de San Isidro</name>
        <description><![CDATA[From Sevilla: 96.9 km<br>To Santiago de Compostela: 886.5 km<br>Altitude: 522 m<br>Latitude: 38.027706º<br>Longitude: -6.217432º]]></description>
        <styleUrl>#Camino4</styleUrl>
        <Point>
          <coordinates>-6.217432,38.027706,522</coordinates>
        </Point>
      </Placemark>
      <Placemark id="wp47">
        <name>Puerto de la Cruz</name>
        <description><![CDATA[From Sevilla: 104.3 km<br>To Santiago de Compostela: 879.1 km<br>Altitude: 753 m<br>Latitude: 38.078448º<br>Longitude: -6.259573º]]></description>
        <styleUrl>#Camino4</styleUrl>
        <Point>
          <coordinates>-6.259573,38.078448,753</coordinates>
        </Point>
      </Placemark>
      <Placemark id="wp48">
        <name>Monesterio</name>
        <description><![CDATA[Where: pilgrims hostel<br>Accommodation: R, H<br>From Sevilla: 105.4 km<br>To Santiago de Compostela: 878.0 km<br>Altitude: 740 m<br>Latitude: 38.084408º<br>Longitude: -6.269267º]]></description>
        <styleUrl>#Camino4</styleUrl>
        <Point>
          <coordinates>-6.269267,38.084408,740</coordinates>
        </Point>
      </Placemark>
      <Placemark id="wp54">
        <name>Arroyo del Bodión</name>
        <description><![CDATA[Where: ford<br>From Sevilla: 119.0 km<br>To Santiago de Compostela: 864.4 km<br>Altitude: 545 m<br>Latitude: 38.182427º<br>Longitude: -6.302955º]]></description>
        <styleUrl>#Camino4</styleUrl>
        <Point>
          <coordinates>-6.302955,38.182427,545</coordinates>
        </Point>
      </Placemark>
      <Placemark id="wp57">
        <name>Fuente de Cantos</name>
        <description><![CDATA[Where: plaza de la Constitución<br>Accommodation: T, H<br>From Sevilla: 126.8 km<br>To Santiago de Compostela: 856.6 km<br>Altitude: 585 m<br>Latitude: 38.246990º<br>Longitude: -6.308727º]]></description>
        <styleUrl>#Camino4</styleUrl>
        <Point>
          <coordinates>-6.308727,38.246990,585</coordinates>
        </Point>
      </Placemark>
      <Placemark id="wp61">
        <name>Calzadilla de los Barros</name>
        <description><![CDATA[Where: plaza de España<br>Accommodation: R<br>From Sevilla: 133.0 km<br>To Santiago de Compostela: 850.4 km<br>Altitude: 563 m<br>Latitude: 38.300430º<br>Longitude: -6.318096º]]></description>
        <styleUrl>#Camino4</styleUrl>
        <Point>
          <coordinates>-6.318096,38.300430,563</coordinates>
        </Point>
      </Placemark>
      <Placemark id="wp62">
        <name>Arroyo Atarja</name>
        <description><![CDATA[Where: ford<br>From Sevilla: 137.6 km<br>To Santiago de Compostela: 845.8 km<br>Altitude: 495 m<br>Latitude: 38.332050º<br>Longitude: -6.334605º]]></description>
        <styleUrl>#Camino4</styleUrl>
        <Point>
          <coordinates>-6.334605,38.332050,495</coordinates>
        </Point>
      </Placemark>
      <Placemark id="wp63">
        <name>Puebla de Sancho Pérez</name>
        <description><![CDATA[Where: plaza de España<br>Accommodation: T, H<br>From Sevilla: 147.3 km<br>To Santiago de Compostela: 836.1 km<br>Altitude: 520 m<br>Latitude: 38.396317º<br>Longitude: -6.401854º]]></description>
        <styleUrl>#Camino4</styleUrl>
        <Point>
          <coordinates>-6.401854,38.396317,520</coordinates>
        </Point>
      </Placemark>
      <Placemark id="wp64">
        <name>Zafra</name>
        <description><![CDATA[Where: plaza Grande<br>Accommodation: T, H<br>From Sevilla: 151.4 km<br>To Santiago de Compostela: 832.0 km<br>Altitude: 511 m<br>Latitude: 38.425373º<br>Longitude: -6.419281º]]></description>
        <styleUrl>#Camino4</styleUrl>
        <Point>
          <coordinates>-6.419281,38.425373,511</coordinates>
        </Point>
      </Placemark>
      <Placemark id="wp65">
        <name>Alto de San Cristóbal</name>
        <description><![CDATA[From Sevilla: 154.6 km<br>To Santiago de Compostela: 828.8 km<br>Altitude: 612 m<br>Latitude: 38.441933º<br>Longitude: -6.391655º]]></description>
        <styleUrl>#Camino4</styleUrl>
        <Point>
          <coordinates>-6.391655,38.441933,612</coordinates>
        </Point>
      </Placemark>
      <Placemark id="wp66">
        <name>Los Santos de Maimona</name>
        <description><![CDATA[Where: church<br>Accommodation: R, H<br>From Sevilla: 155.7 km<br>To Santiago de Compostela: 827.7 km<br>Altitude: 537 m<br>Latitude: 38.448799º<br>Longitude: -6.384334º]]></description>
        <styleUrl>#Camino4</styleUrl>
        <Point>
          <coordinates>-6.384334,38.448799,537</coordinates>
        </Point>
      </Placemark>
      <Placemark id="wp69">
        <name>Detour to Albergue de la Almazara</name>
        <description><![CDATA[At 500 m<br>Accommodation: T<br>From Sevilla: 164.0 km<br>To Santiago de Compostela: 819.4 km<br>Altitude: 482 m<br>Latitude: 38.515457º<br>Longitude: -6.362359º]]></description>
        <styleUrl>#Camino4</styleUrl>
        <Point>
          <coordinates>-6.362359,38.515457,482</coordinates>
        </Point>
      </Placemark>
      <Placemark id="wp70">
        <name>Villafranca de los Barros</name>
        <description><![CDATA[Where: plaza de España<br>Accommodation: H<br>From Sevilla: 170.8 km<br>To Santiago de Compostela: 812.6 km<br>Altitude: 409 m<br>Latitude: 38.560841º<br>Longitude: -6.340319º]]></description>
        <styleUrl>#Camino4</styleUrl>
        <Point>
          <coordinates>-6.340319,38.560841,409</coordinates>
        </Point>
      </Placemark>
      <Placemark id="wp72">
        <name>Detour to Almendralejo</name>
        <description><![CDATA[At 3.3 km<br>Accommodation: H<br>From Sevilla: 185.0 km<br>To Santiago de Compostela: 798.4 km<br>Altitude: 375 m<br>Latitude: 38.677563º<br>Longitude: -6.362844º]]></description>
        <styleUrl>#Camino4</styleUrl>
        <Point>
          <coordinates>-6.362844,38.677563,375</coordinates>
        </Point>
      </Placemark>
      <Placemark id="wp74">
        <name>Torremejía</name>
        <description><![CDATA[Where: pilgrims hostel<br>Accommodation: R, T, H<br>From Sevilla: 198.3 km<br>To Santiago de Compostela: 785.1 km<br>Altitude: 294 m<br>Latitude: 38.790043º<br>Longitude: -6.380868º]]></description>
        <styleUrl>#Camino4</styleUrl>
        <Point>
          <coordinates>-6.380868,38.790043,294</coordinates>
        </Point>
      </Placemark>
      <Placemark id="wp76">
        <name>Río Guadiana</name>
        <description><![CDATA[Where: roman bridge<br>From Sevilla: 213.4 km<br>To Santiago de Compostela: 770.0 km<br>Altitude: 206 m<br>Latitude: 38.912159º<br>Longitude: -6.352351º]]></description>
        <styleUrl>#Camino4</styleUrl>
        <Point>
          <coordinates>-6.352351,38.912159,206</coordinates>
        </Point>
      </Placemark>
      <Placemark id="wp77">
        <name>Mérida</name>
        <description><![CDATA[Where: pilgrims hostel<br>Accommodation: R, H, C<br>From Sevilla: 214.7 km<br>To Santiago de Compostela: 768.7 km<br>Altitude: 202 m<br>Latitude: 38.920246º<br>Longitude: -6.352937º]]></description>
        <styleUrl>#Camino4</styleUrl>
        <Point>
          <coordinates>-6.352937,38.920246,202</coordinates>
        </Point>
      </Placemark>
      <Placemark id="wp78">
        <name>Acueducto de Los Milagros</name>
        <description><![CDATA[Where: río Albarregas<br>From Sevilla: 215.5 km<br>To Santiago de Compostela: 767.9 km<br>Altitude: 207 m<br>Latitude: 38.924454º<br>Longitude: -6.349021º]]></description>
        <styleUrl>#Camino4</styleUrl>
        <Point>
          <coordinates>-6.349021,38.924454,207</coordinates>
        </Point>
      </Placemark>
      <Placemark id="wp80">
        <name>Proserpina</name>
        <description><![CDATA[Where: campsite<br>Accommodation: C<br>From Sevilla: 220.5 km<br>To Santiago de Compostela: 762.9 km<br>Altitude: 240 m<br>Latitude: 38.965660º<br>Longitude: -6.365360º]]></description>
        <styleUrl>#Camino4</styleUrl>
        <Point>
          <coordinates>-6.365360,38.965660,240</coordinates>
        </Point>
      </Placemark>
      <Placemark id="wp81">
        <name>Embalse de Proserpina</name>
        <description><![CDATA[Where: roman dam<br>From Sevilla: 220.8 km<br>To Santiago de Compostela: 762.6 km<br>Altitude: 245 m<br>Latitude: 38.967815º<br>Longitude: -6.367076º]]></description>
        <styleUrl>#Camino4</styleUrl>
        <Point>
          <coordinates>-6.367076,38.967815,245</coordinates>
        </Point>
      </Placemark>
      <Placemark id="wp86">
        <name>El Carrascalejo</name>
        <description><![CDATA[Where: church<br>From Sevilla: 228.1 km<br>To Santiago de Compostela: 755.3 km<br>Altitude: 299 m<br>Latitude: 39.022736º<br>Longitude: -6.337237º]]></description>
        <styleUrl>#Camino4</styleUrl>
        <Point>
          <coordinates>-6.337237,39.022736,299</coordinates>
        </Point>
      </Placemark>
      <Placemark id="wp90">
        <name>Aljucén</name>
        <description><![CDATA[Where: park<br>Accommodation: P, H<br>From Sevilla: 230.8 km<br>To Santiago de Compostela: 752.6 km<br>Altitude: 267 m<br>Latitude: 39.043739º<br>Longitude: -6.331027º]]></description>
        <styleUrl>#Camino4</styleUrl>
        <Point>
          <coordinates>-6.331027,39.043739,267</coordinates>
        </Point>
      </Placemark>
      <Placemark id="wp95">
        <name>Cruz del niño muerto</name>
        <description><![CDATA[From Sevilla: 245.6 km<br>To Santiago de Compostela: 737.8 km<br>Altitude: 439 m<br>Latitude: 39.141872º<br>Longitude: -6.253059º]]></description>
        <styleUrl>#Camino4</styleUrl>
        <Point>
          <coordinates>-6.253059,39.141872,439</coordinates>
        </Point>
      </Placemark>
      <Placemark id="wp99">
        <name>Alcuéscar</name>
        <description><![CDATA[Where: pilgrims hostel<br>Accommodation: R, H<br>From Sevilla: 251.3 km<br>To Santiago de Compostela: 732.1 km<br>Altitude: 448 m<br>Latitude: 39.181400º<br>Longitude: -6.237700º]]></description>
        <styleUrl>#Camino4</styleUrl>
        <Point>
          <coordinates>-6.237700,39.181400,448</coordinates>
        </Point>
      </Placemark>
      <Placemark id="wp101">
        <name>Casas de Don Antonio</name>
        <description><![CDATA[Where: roman bridge<br>From Sevilla: 259.3 km<br>To Santiago de Compostela: 724.1 km<br>Altitude: 389 m<br>Latitude: 39.234013º<br>Longitude: -6.289886º]]></description>
        <styleUrl>#Camino4</styleUrl>
        <Point>
          <coordinates>-6.289886,39.234013,389</coordinates>
        </Point>
      </Placemark>
      <Placemark id="wp102">
        <name>Roman milestone</name>
        <description><![CDATA[From Sevilla: 262.6 km<br>To Santiago de Compostela: 720.8 km<br>Altitude: 380 m<br>Latitude: 39.254833º<br>Longitude: -6.308601º]]></description>
        <styleUrl>#Camino4</styleUrl>
        <Point>
          <coordinates>-6.308601,39.254833,380</coordinates>
        </Point>
      </Placemark>
      <Placemark id="wp103">
        <name>Roman bridge</name>
        <description><![CDATA[From Sevilla: 263.7 km<br>To Santiago de Compostela: 719.7 km<br>Altitude: 374 m<br>Latitude: 39.263916º<br>Longitude: -6.313355º]]></description>
        <styleUrl>#Camino4</styleUrl>
        <Point>
          <coordinates>-6.313355,39.263916,374</coordinates>
        </Point>
      </Placemark>
      <Placemark id="wp105">
        <name>Aldea del Cano</name>
        <description><![CDATA[Where: pilgrims hostel<br>Accommodation: R, H<br>From Sevilla: 266.6 km<br>To Santiago de Compostela: 716.8 km<br>Altitude: 391 m<br>Latitude: 39.286709º<br>Longitude: -6.320506º]]></description>
        <styleUrl>#Camino4</styleUrl>
        <Point>
          <coordinates>-6.320506,39.286709,391</coordinates>
        </Point>
      </Placemark>
      <Placemark id="wp106">
        <name>Aerodrome La Cervera</name>
        <description><![CDATA[From Sevilla: 272.2 km<br>To Santiago de Compostela: 711.2 km<br>Altitude: 409 m<br>Latitude: 39.328873º<br>Longitude: -6.342817º]]></description>
        <styleUrl>#Camino4</styleUrl>
        <Point>
          <coordinates>-6.342817,39.328873,409</coordinates>
        </Point>
      </Placemark>
      <Placemark id="wp107">
        <name>Roman bridge</name>
        <description><![CDATA[From Sevilla: 275.7 km<br>To Santiago de Compostela: 707.7 km<br>Altitude: 369 m<br>Latitude: 39.366928º<br>Longitude: -6.346301º]]></description>
        <styleUrl>#Camino4</styleUrl>
        <Point>
          <coordinates>-6.346301,39.366928,369</coordinates>
        </Point>
      </Placemark>
      <Placemark id="wp108">
        <name>Valdesalor</name>
        <description><![CDATA[Where: town hall<br>Accommodation: R<br>From Sevilla: 277.0 km<br>To Santiago de Compostela: 706.4 km<br>Altitude: 389 m<br>Latitude: 39.378204º<br>Longitude: -6.346609º]]></description>
        <styleUrl>#Camino4</styleUrl>
        <Point>
          <coordinates>-6.346609,39.378204,389</coordinates>
        </Point>
      </Placemark>
      <Placemark id="wp110">
        <name>Puerto de las Camellas</name>
        <description><![CDATA[From Sevilla: 282.0 km<br>To Santiago de Compostela: 701.4 km<br>Altitude: 481 m<br>Latitude: 39.419331º<br>Longitude: -6.356020º]]></description>
        <styleUrl>#Camino4</styleUrl>
        <Point>
          <coordinates>-6.356020,39.419331,481</coordinates>
        </Point>
      </Placemark>
      <Placemark id="wp113">
        <name>Cáceres</name>
        <description><![CDATA[Where: plaza Mayor<br>Accommodation: P, A, H, C<br>From Sevilla: 288.8 km<br>To Santiago de Compostela: 694.6 km<br>Altitude: 450 m<br>Latitude: 39.474982º<br>Longitude: -6.371658º]]></description>
        <styleUrl>#Camino4</styleUrl>
        <Point>
          <coordinates>-6.371658,39.474982,450</coordinates>
        </Point>
      </Placemark>
      <Placemark id="wp114">
        <name>Plaza de Toros</name>
        <description><![CDATA[From Sevilla: 289.7 km<br>To Santiago de Compostela: 693.7 km<br>Altitude: 440 m<br>Latitude: 39.479937º<br>Longitude: -6.375845º]]></description>
        <styleUrl>#Camino4</styleUrl>
        <Point>
          <coordinates>-6.375845,39.479937,440</coordinates>
        </Point>
      </Placemark>
      <Placemark id="wp118">
        <name>Casar de Cáceres</name>
        <description><![CDATA[Where: pilgrims hostel<br>Accommodation: R, H<br>From Sevilla: 299.9 km<br>To Santiago de Compostela: 683.5 km<br>Altitude: 368 m<br>Latitude: 39.561401º<br>Longitude: -6.417167º]]></description>
        <styleUrl>#Camino4</styleUrl>
        <Point>
          <coordinates>-6.417167,39.561401,368</coordinates>
        </Point>
      </Placemark>
      <Placemark id="wp122">
        <name>N-630</name>
        <description><![CDATA[From Sevilla: 316.5 km<br>To Santiago de Compostela: 666.9 km<br>Altitude: 242 m<br>Latitude: 39.688148º<br>Longitude: -6.470651º]]></description>
        <styleUrl>#Camino4</styleUrl>
        <Point>
          <coordinates>-6.470651,39.688148,242</coordinates>
        </Point>
      </Placemark>
      <Placemark id="wp123">
        <name>Río Almonte</name>
        <description><![CDATA[Where: bridge<br>From Sevilla: 316.8 km<br>To Santiago de Compostela: 666.6 km<br>Altitude: 241 m<br>Latitude: 39.690189º<br>Longitude: -6.468310º]]></description>
        <styleUrl>#Camino4</styleUrl>
        <Point>
          <coordinates>-6.468310,39.690189,241</coordinates>
        </Point>
      </Placemark>
      <Placemark id="wp124">
        <name>Río Tajo</name>
        <description><![CDATA[Where: bridge<br>From Sevilla: 320.4 km<br>To Santiago de Compostela: 663.0 km<br>Altitude: 234 m<br>Latitude: 39.715187º<br>Longitude: -6.450659º]]></description>
        <styleUrl>#Camino4</styleUrl>
        <Point>
          <coordinates>-6.450659,39.715187,234</coordinates>
        </Point>
      </Placemark>
      <Placemark id="wp125">
        <name>Detour to Albergue del Embalse de Alcántara</name>
        <description><![CDATA[At 600 m<br>Accommodation: T, H<br>From Sevilla: 321.8 km<br>To Santiago de Compostela: 661.6 km<br>Altitude: 260 m<br>Latitude: 39.727463º<br>Longitude: -6.448942º]]></description>
        <styleUrl>#Camino4</styleUrl>
        <Point>
          <coordinates>-6.448942,39.727463,260</coordinates>
        </Point>
      </Placemark>
      <Placemark id="wp129">
        <name>Cañaveral</name>
        <description><![CDATA[Where: church<br>Accommodation: R, H<br>From Sevilla: 332.8 km<br>To Santiago de Compostela: 650.6 km<br>Altitude: 354 m<br>Latitude: 39.789800º<br>Longitude: -6.394193º]]></description>
        <styleUrl>#Camino4</styleUrl>
        <Point>
          <coordinates>-6.394193,39.789800,354</coordinates>
        </Point>
      </Placemark>
      <Placemark id="wp130">
        <name>Albergue de Cañaveral</name>
        <description><![CDATA[From Sevilla: 333.4 km<br>To Santiago de Compostela: 650.0 km<br>Altitude: 361 m<br>Latitude: 39.792725º<br>Longitude: -6.389490º]]></description>
        <styleUrl>#Camino4</styleUrl>
        <Point>
          <coordinates>-6.389490,39.792725,361</coordinates>
        </Point>
      </Placemark>
      <Placemark id="wp131">
        <name>Ermita de San Cristóbal</name>
        <description><![CDATA[From Sevilla: 335.3 km<br>To Santiago de Compostela: 648.1 km<br>Altitude: 401 m<br>Latitude: 39.800762º<br>Longitude: -6.373293º]]></description>
        <styleUrl>#Camino4</styleUrl>
        <Point>
          <coordinates>-6.373293,39.800762,401</coordinates>
        </Point>
      </Placemark>
      <Placemark id="wp135">
        <name>Detour to Grimaldo</name>
        <description><![CDATA[At 1 km<br>Accommodation: R<br>From Sevilla: 341.3 km<br>To Santiago de Compostela: 642.1 km<br>Altitude: 424 m<br>Latitude: 39.842525º<br>Longitude: -6.354987º]]></description>
        <styleUrl>#Camino4</styleUrl>
        <Point>
          <coordinates>-6.354987,39.842525,424</coordinates>
        </Point>
      </Placemark>
      <Placemark id="wp145">
        <name>Variant through Galisteo</name>
        <description><![CDATA[From Sevilla: 359.0 km<br>To Santiago de Compostela: 624.4 km<br>Altitude: 269 m<br>Latitude: 39.961224º<br>Longitude: -6.257916º]]></description>
        <styleUrl>#Camino4</styleUrl>
        <Point>
          <coordinates>-6.257916,39.961224,269</coordinates>
        </Point>
      </Placemark>
      <Placemark id="wp148">
        <name>Galisteo</name>
        <description><![CDATA[Where: Puerta del Rey<br>Accommodation: R, P, H<br>From Sevilla: 360.9 km<br>To Santiago de Compostela: 622.5 km<br>Altitude: 285 m<br>Latitude: 39.974934º<br>Longitude: -6.268162º]]></description>
        <styleUrl>#Camino4</styleUrl>
        <Point>
          <coordinates>-6.268162,39.974934,285</coordinates>
        </Point>
      </Placemark>
      <Placemark id="wp149">
        <name>Albergue Los Trillos</name>
        <description><![CDATA[From Sevilla: 361.3 km<br>To Santiago de Compostela: 622.1 km<br>Altitude: 275 m<br>Latitude: 39.976776º<br>Longitude: -6.269735º]]></description>
        <styleUrl>#Camino4</styleUrl>
        <Point>
          <coordinates>-6.269735,39.976776,275</coordinates>
        </Point>
      </Placemark>
      <Placemark id="wp150">
        <name>Río Jerte</name>
        <description><![CDATA[Where: medieval bridge<br>From Sevilla: 361.9 km<br>To Santiago de Compostela: 621.5 km<br>Altitude: 247 m<br>Latitude: 39.981693º<br>Longitude: -6.271420º]]></description>
        <styleUrl>#Camino4</styleUrl>
        <Point>
          <coordinates>-6.271420,39.981693,247</coordinates>
        </Point>
      </Placemark>
      <Placemark id="wp151">
        <name>Aldehuela del Jerte</name>
        <description><![CDATA[From Sevilla: 366.6 km<br>To Santiago de Compostela: 616.8 km<br>Altitude: 266 m<br>Latitude: 40.011204º<br>Longitude: -6.238996º]]></description>
        <styleUrl>#Camino4</styleUrl>
        <Point>
          <coordinates>-6.238996,40.011204,266</coordinates>
        </Point>
      </Placemark>
      <Placemark id="wp152">
        <name>Carcaboso</name>
        <description><![CDATA[Where: pilgrims hostel<br>Accommodation: R, P, H<br>From Sevilla: 371.7 km<br>To Santiago de Compostela: 611.7 km<br>Altitude: 272 m<br>Latitude: 40.048901º<br>Longitude: -6.214013º]]></description>
        <styleUrl>#Camino4</styleUrl>
        <Point>
          <coordinates>-6.214013,40.048901,272</coordinates>
        </Point>
      </Placemark>
      <Placemark id="wp157">
        <name>Venta Quemada</name>
        <description><![CDATA[From Sevilla: 383.9 km<br>To Santiago de Compostela: 599.5 km<br>Altitude: 421 m<br>Latitude: 40.131695º<br>Longitude: -6.156214º]]></description>
        <styleUrl>#Camino4</styleUrl>
        <Point>
          <coordinates>-6.156214,40.131695,421</coordinates>
        </Point>
      </Placemark>
      <Placemark id="wp159">
        <name>Cáparra</name>
        <description><![CDATA[From Sevilla: 390.1 km<br>To Santiago de Compostela: 593.3 km<br>Altitude: 402 m<br>Latitude: 40.166538º<br>Longitude: -6.101017º]]></description>
        <styleUrl>#Camino4</styleUrl>
        <Point>
          <coordinates>-6.101017,40.166538,402</coordinates>
        </Point>
      </Placemark>
      <Placemark id="wp161">
        <name>Detour to Hostal Asturias</name>
        <description><![CDATA[At 2 km<br>From Sevilla: 398.6 km<br>To Santiago de Compostela: 584.8 km<br>Altitude: 391 m<br>Latitude: 40.201870º<br>Longitude: -6.018312º]]></description>
        <styleUrl>#Camino4</styleUrl>
        <Point>
          <coordinates>-6.018312,40.201870,391</coordinates>
        </Point>
      </Placemark>
      <Placemark id="wp162">
        <name>A-66</name>
        <description><![CDATA[Where: tunnel<br>From Sevilla: 402.6 km<br>To Santiago de Compostela: 580.8 km<br>Altitude: 403 m<br>Latitude: 40.222561º<br>Longitude: -5.981415º]]></description>
        <styleUrl>#Camino4</styleUrl>
        <Point>
          <coordinates>-5.981415,40.222561,403</coordinates>
        </Point>
      </Placemark>
      <Placemark id="wp163">
        <name>Variant by pathway</name>
        <description><![CDATA[From Sevilla: 403.9 km<br>To Santiago de Compostela: 579.5 km<br>Altitude: 425 m<br>Latitude: 40.231956º<br>Longitude: -5.975219º]]></description>
        <styleUrl>#Camino4</styleUrl>
        <Point>
          <coordinates>-5.975219,40.231956,425</coordinates>
        </Point>
      </Placemark>
      <Placemark id="wp164">
        <name>Aldeanueva del Camino</name>
        <description><![CDATA[Where: pilgrims hostel<br>Accommodation: R, H, C<br>From Sevilla: 410.6 km<br>To Santiago de Compostela: 572.8 km<br>Altitude: 534 m<br>Latitude: 40.258377º<br>Longitude: -5.931067º]]></description>
        <styleUrl>#Camino4</styleUrl>
        <Point>
          <coordinates>-5.931067,40.258377,534</coordinates>
        </Point>
      </Placemark>
      <Placemark id="wp165">
        <name>Baños de Montemayor</name>
        <description><![CDATA[Where: town hall<br>Accommodation: T, H<br>From Sevilla: 420.4 km<br>To Santiago de Compostela: 563.0 km<br>Altitude: 708 m<br>Latitude: 40.317940º<br>Longitude: -5.857640º]]></description>
        <styleUrl>#Camino4</styleUrl>
        <Point>
          <coordinates>-5.857640,40.317940,708</coordinates>
        </Point>
      </Placemark>
      <Placemark id="wp166">
        <name>Puerto de Béjar</name>
        <description><![CDATA[Accommodation: H<br>From Sevilla: 423.4 km<br>To Santiago de Compostela: 560.0 km<br>Altitude: 899 m<br>Latitude: 40.343273º<br>Longitude: -5.847720º]]></description>
        <styleUrl>#Camino4</styleUrl>
        <Point>
          <coordinates>-5.847720,40.343273,899</coordinates>
        </Point>
      </Placemark>
      <Placemark id="wp167">
        <name>Puente de la Malena</name>
        <description><![CDATA[Where: río Cuerpo de Hombre<br>From Sevilla: 427.2 km<br>To Santiago de Compostela: 556.2 km<br>Altitude: 663 m<br>Latitude: 40.370370º<br>Longitude: -5.848320º]]></description>
        <styleUrl>#Camino4</styleUrl>
        <Point>
          <coordinates>-5.848320,40.370370,663</coordinates>
        </Point>
      </Placemark>
      <Placemark id="wp169">
        <name>La Calzada de Béjar</name>
        <description><![CDATA[Where: pilgrims hostel<br>Accommodation: R, P, H<br>From Sevilla: 432.6 km<br>To Santiago de Compostela: 550.8 km<br>Altitude: 790 m<br>Latitude: 40.409438º<br>Longitude: -5.816859º]]></description>
        <styleUrl>#Camino4</styleUrl>
        <Point>
          <coordinates>-5.816859,40.409438,790</coordinates>
        </Point>
      </Placemark>
      <Placemark id="wp170">
        <name>Valverde de Valdelacasa</name>
        <description><![CDATA[From Sevilla: 441.5 km<br>To Santiago de Compostela: 541.9 km<br>Altitude: 797 m<br>Latitude: 40.480620º<br>Longitude: -5.781730º]]></description>
        <styleUrl>#Camino4</styleUrl>
        <Point>
          <coordinates>-5.781730,40.480620,797</coordinates>
        </Point>
      </Placemark>
      <Placemark id="wp171">
        <name>Valdelacasa</name>
        <description><![CDATA[From Sevilla: 445.1 km<br>To Santiago de Compostela: 538.3 km<br>Altitude: 948 m<br>Latitude: 40.505880º<br>Longitude: -5.764820º]]></description>
        <styleUrl>#Camino4</styleUrl>
        <Point>
          <coordinates>-5.764820,40.505880,948</coordinates>
        </Point>
      </Placemark>
      <Placemark id="wp175">
        <name>Fuenterroble de Salvatierra</name>
        <description><![CDATA[Where: pilgrims hostel<br>Accommodation: R, H<br>From Sevilla: 453.0 km<br>To Santiago de Compostela: 530.4 km<br>Altitude: 952 m<br>Latitude: 40.564960º<br>Longitude: -5.731750º]]></description>
        <styleUrl>#Camino4</styleUrl>
        <Point>
          <coordinates>-5.731750,40.564960,952</coordinates>
        </Point>
      </Placemark>
      <Placemark id="wp178">
        <name>Pico de la Dueña</name>
        <description><![CDATA[From Sevilla: 467.4 km<br>To Santiago de Compostela: 516.0 km<br>Altitude: 1,150 m<br>Latitude: 40.680630º<br>Longitude: -5.760570º]]></description>
        <styleUrl>#Camino4</styleUrl>
        <Point>
          <coordinates>-5.760570,40.680630,1150</coordinates>
        </Point>
      </Placemark>
      <Placemark id="wp180">
        <name>Calzadilla de los Mendigos</name>
        <description><![CDATA[From Sevilla: 474.2 km<br>To Santiago de Compostela: 509.2 km<br>Altitude: 949 m<br>Latitude: 40.735890º<br>Longitude: -5.759390º]]></description>
        <styleUrl>#Camino4</styleUrl>
        <Point>
          <coordinates>-5.759390,40.735890,949</coordinates>
        </Point>
      </Placemark>
      <Placemark id="wp182">
        <name>San Pedro de Rozados</name>
        <description><![CDATA[Accommodation: R, P, H<br>From Sevilla: 481.2 km<br>To Santiago de Compostela: 502.2 km<br>Altitude: 972 m<br>Latitude: 40.789700º<br>Longitude: -5.737190º]]></description>
        <styleUrl>#Camino4</styleUrl>
        <Point>
          <coordinates>-5.737190,40.789700,972</coordinates>
        </Point>
      </Placemark>
      <Placemark id="wp183">
        <name>Morille</name>
        <description><![CDATA[Accommodation: R<br>From Sevilla: 485.5 km<br>To Santiago de Compostela: 497.9 km<br>Altitude: 931 m<br>Latitude: 40.807040º<br>Longitude: -5.698460º]]></description>
        <styleUrl>#Camino4</styleUrl>
        <Point>
          <coordinates>-5.698460,40.807040,931</coordinates>
        </Point>
      </Placemark>
      <Placemark id="wp184">
        <name>Detour to Miranda de Azán</name>
        <description><![CDATA[At 400 m<br>From Sevilla: 495.5 km<br>To Santiago de Compostela: 487.9 km<br>Altitude: 828 m<br>Latitude: 40.886364º<br>Longitude: -5.686569º]]></description>
        <styleUrl>#Camino4</styleUrl>
        <Point>
          <coordinates>-5.686569,40.886364,828</coordinates>
        </Point>
      </Placemark>
      <Placemark id="wp190">
        <name>Río Tormes</name>
        <description><![CDATA[Where: roman bridge<br>From Sevilla: 504.1 km<br>To Santiago de Compostela: 479.3 km<br>Altitude: 773 m<br>Latitude: 40.956322º<br>Longitude: -5.671341º]]></description>
        <styleUrl>#Camino4</styleUrl>
        <Point>
          <coordinates>-5.671341,40.956322,773</coordinates>
        </Point>
      </Placemark>
      <Placemark id="wp191">
        <name>Albergue de Salamanca</name>
        <description><![CDATA[From Sevilla: 504.9 km<br>To Santiago de Compostela: 478.5 km<br>Altitude: 791 m<br>Latitude: 40.959648º<br>Longitude: -5.665619º]]></description>
        <styleUrl>#Camino4</styleUrl>
        <Point>
          <coordinates>-5.665619,40.959648,791</coordinates>
        </Point>
      </Placemark>
      <Placemark id="wp192">
        <name>Salamanca</name>
        <description><![CDATA[Where: plaza Mayor<br>Accommodation: R, A, H, C<br>From Sevilla: 505.8 km<br>To Santiago de Compostela: 477.6 km<br>Altitude: 806 m<br>Latitude: 40.965024º<br>Longitude: -5.664087º]]></description>
        <styleUrl>#Camino4</styleUrl>
        <Point>
          <coordinates>-5.664087,40.965024,806</coordinates>
        </Point>
      </Placemark>
      <Placemark id="wp193">
        <name>Aldeaseca de la Armuña</name>
        <description><![CDATA[From Sevilla: 511.5 km<br>To Santiago de Compostela: 471.9 km<br>Altitude: 815 m<br>Latitude: 41.019158º<br>Longitude: -5.671188º]]></description>
        <styleUrl>#Camino4</styleUrl>
        <Point>
          <coordinates>-5.671188,41.019158,815</coordinates>
        </Point>
      </Placemark>
      <Placemark id="wp194">
        <name>Castellanos de Villiquera</name>
        <description><![CDATA[From Sevilla: 516.7 km<br>To Santiago de Compostela: 466.7 km<br>Altitude: 824 m<br>Latitude: 41.052244º<br>Longitude: -5.695655º]]></description>
        <styleUrl>#Camino4</styleUrl>
        <Point>
          <coordinates>-5.695655,41.052244,824</coordinates>
        </Point>
      </Placemark>
      <Placemark id="wp195">
        <name>Calzada de Valdunciel</name>
        <description><![CDATA[Accommodation: R, H<br>From Sevilla: 520.8 km<br>To Santiago de Compostela: 462.6 km<br>Altitude: 800 m<br>Latitude: 41.086678º<br>Longitude: -5.703020º]]></description>
        <styleUrl>#Camino4</styleUrl>
        <Point>
          <coordinates>-5.703020,41.086678,800</coordinates>
        </Point>
      </Placemark>
      <Placemark id="wp196">
        <name>El Cubo del Vino</name>
        <description><![CDATA[Accommodation: R, P, H<br>From Sevilla: 540.4 km<br>To Santiago de Compostela: 443.0 km<br>Altitude: 840 m<br>Latitude: 41.255550º<br>Longitude: -5.710635º]]></description>
        <styleUrl>#Camino4</styleUrl>
        <Point>
          <coordinates>-5.710635,41.255550,840</coordinates>
        </Point>
      </Placemark>
      <Placemark id="wp197">
        <name>Villanueva de Campeán</name>
        <description><![CDATA[Accommodation: R<br>From Sevilla: 553.4 km<br>To Santiago de Compostela: 430.0 km<br>Altitude: 760 m<br>Latitude: 41.354875º<br>Longitude: -5.770632º]]></description>
        <styleUrl>#Camino4</styleUrl>
        <Point>
          <coordinates>-5.770632,41.354875,760</coordinates>
        </Point>
      </Placemark>
      <Placemark id="wp198">
        <name>Río Duero</name>
        <description><![CDATA[Where: medieval bridge<br>From Sevilla: 571.2 km<br>To Santiago de Compostela: 412.2 km<br>Altitude: 621 m<br>Latitude: 41.499218º<br>Longitude: -5.748118º]]></description>
        <styleUrl>#Camino4</styleUrl>
        <Point>
          <coordinates>-5.748118,41.499218,621</coordinates>
        </Point>
      </Placemark>
      <Placemark id="wp199">
        <name>Albergue de Zamora</name>
        <description><![CDATA[From Sevilla: 571.5 km<br>To Santiago de Compostela: 411.9 km<br>Altitude: 642 m<br>Latitude: 41.501241º<br>Longitude: -5.748271º]]></description>
        <styleUrl>#Camino4</styleUrl>
        <Point>
          <coordinates>-5.748271,41.501241,642</coordinates>
        </Point>
      </Placemark>
      <Placemark id="wp200">
        <name>Zamora</name>
        <description><![CDATA[Where: plaza Mayor<br>Accommodation: A, H<br>From Sevilla: 571.8 km<br>To Santiago de Compostela: 411.6 km<br>Altitude: 657 m<br>Latitude: 41.503507º<br>Longitude: -5.746590º]]></description>
        <styleUrl>#Camino4</styleUrl>
        <Point>
          <coordinates>-5.746590,41.503507,657</coordinates>
        </Point>
      </Placemark>
      <Placemark id="wp202">
        <name>Roales del Pan</name>
        <description><![CDATA[Where: town hall<br>Accommodation: R<br>From Sevilla: 578.8 km<br>To Santiago de Compostela: 404.6 km<br>Altitude: 701 m<br>Latitude: 41.552406º<br>Longitude: -5.773508º]]></description>
        <styleUrl>#Camino4</styleUrl>
        <Point>
          <coordinates>-5.773508,41.552406,701</coordinates>
        </Point>
      </Placemark>
      <Placemark id="wp205">
        <name>Montamarta</name>
        <description><![CDATA[Accommodation: R, H<br>From Sevilla: 590.6 km<br>To Santiago de Compostela: 392.8 km<br>Altitude: 691 m<br>Latitude: 41.649672º<br>Longitude: -5.803499º]]></description>
        <styleUrl>#Camino4</styleUrl>
        <Point>
          <coordinates>-5.803499,41.649672,691</coordinates>
        </Point>
      </Placemark>
      <Placemark id="wp210">
        <name>Castrotorafe</name>
        <description><![CDATA[From Sevilla: 600.8 km<br>To Santiago de Compostela: 382.6 km<br>Altitude: 706 m<br>Latitude: 41.720482º<br>Longitude: -5.791009º]]></description>
        <styleUrl>#Camino4</styleUrl>
        <Point>
          <coordinates>-5.791009,41.720482,706</coordinates>
        </Point>
      </Placemark>
      <Placemark id="wp211">
        <name>Fontanillas de Castro</name>
        <description><![CDATA[From Sevilla: 602.8 km<br>To Santiago de Compostela: 380.6 km<br>Altitude: 719 m<br>Latitude: 41.733239º<br>Longitude: -5.780341º]]></description>
        <styleUrl>#Camino4</styleUrl>
        <Point>
          <coordinates>-5.780341,41.733239,719</coordinates>
        </Point>
      </Placemark>
      <Placemark id="wp213">
        <name>Riego del Camino</name>
        <description><![CDATA[Accommodation: R<br>From Sevilla: 606.5 km<br>To Santiago de Compostela: 376.9 km<br>Altitude: 702 m<br>Latitude: 41.760552º<br>Longitude: -5.767563º]]></description>
        <styleUrl>#Camino4</styleUrl>
        <Point>
          <coordinates>-5.767563,41.760552,702</coordinates>
        </Point>
      </Placemark>
      <Placemark id="wp215">
        <name>Granja de Moreruela</name>
        <description><![CDATA[Where: fork Camino Mozárabe / Vía de la Plata<br>Accommodation: R<br>From Sevilla: 613.0 km<br>To Santiago de Compostela: 370.4 km<br>Altitude: 706 m<br>Latitude: 41.809710º<br>Longitude: -5.739306º]]></description>
        <styleUrl>#Camino4</styleUrl>
        <Point>
          <coordinates>-5.739306,41.809710,706</coordinates>
        </Point>
      </Placemark>
      <Placemark id="wp220">
        <name>Puente Quintos</name>
        <description><![CDATA[Where: río Esla<br>From Sevilla: 619.7 km<br>To Santiago de Compostela: 363.7 km<br>Altitude: 689 m<br>Latitude: 41.845360º<br>Longitude: -5.783130º]]></description>
        <styleUrl>#Camino4</styleUrl>
        <Point>
          <coordinates>-5.783130,41.845360,689</coordinates>
        </Point>
      </Placemark>
      <Placemark id="wp225">
        <name>Finca Val de la Rosa</name>
        <description><![CDATA[From Sevilla: 624.0 km<br>To Santiago de Compostela: 359.4 km<br>Altitude: 731 m<br>Latitude: 41.828350º<br>Longitude: -5.816328º]]></description>
        <styleUrl>#Camino4</styleUrl>
        <Point>
          <coordinates>-5.816328,41.828350,731</coordinates>
        </Point>
      </Placemark>
      <Placemark id="wp229">
        <name>Faramontanos de Tábara</name>
        <description><![CDATA[Where: square<br>Accommodation: R<br>From Sevilla: 631.7 km<br>To Santiago de Compostela: 351.7 km<br>Altitude: 709 m<br>Latitude: 41.834560º<br>Longitude: -5.888090º]]></description>
        <styleUrl>#Camino4</styleUrl>
        <Point>
          <coordinates>-5.888090,41.834560,709</coordinates>
        </Point>
      </Placemark>
      <Placemark id="wp231">
        <name>Tábara</name>
        <description><![CDATA[Where: church<br>Accommodation: R, H<br>From Sevilla: 638.4 km<br>To Santiago de Compostela: 345.0 km<br>Altitude: 747 m<br>Latitude: 41.826680º<br>Longitude: -5.958520º]]></description>
        <styleUrl>#Camino4</styleUrl>
        <Point>
          <coordinates>-5.958520,41.826680,747</coordinates>
        </Point>
      </Placemark>
      <Placemark id="wp236">
        <name>Bercianos de Valverde</name>
        <description><![CDATA[From Sevilla: 653.1 km<br>To Santiago de Compostela: 330.3 km<br>Altitude: 737 m<br>Latitude: 41.931300º<br>Longitude: -5.952020º]]></description>
        <styleUrl>#Camino4</styleUrl>
        <Point>
          <coordinates>-5.952020,41.931300,737</coordinates>
        </Point>
      </Placemark>
      <Placemark id="wp241">
        <name>Santa Croya de Tera</name>
        <description><![CDATA[Accommodation: P<br>From Sevilla: 660.0 km<br>To Santiago de Compostela: 323.4 km<br>Altitude: 725 m<br>Latitude: 41.984170º<br>Longitude: -5.976550º]]></description>
        <styleUrl>#Camino4</styleUrl>
        <Point>
          <coordinates>-5.976550,41.984170,725</coordinates>
        </Point>
      </Placemark>
      <Placemark id="wp242">
        <name>Santa Marta de Tera</name>
        <description><![CDATA[Where: pilgrims hostel<br>Accommodation: R<br>From Sevilla: 661.5 km<br>To Santiago de Compostela: 321.9 km<br>Altitude: 734 m<br>Latitude: 41.994958º<br>Longitude: -5.971036º]]></description>
        <styleUrl>#Camino4</styleUrl>
        <Point>
          <coordinates>-5.971036,41.994958,734</coordinates>
        </Point>
      </Placemark>
      <Placemark id="wp243">
        <name>Calzadilla de Tera</name>
        <description><![CDATA[Accommodation: R<br>From Sevilla: 672.4 km<br>To Santiago de Compostela: 311.0 km<br>Altitude: 755 m<br>Latitude: 41.979880º<br>Longitude: -6.081900º]]></description>
        <styleUrl>#Camino4</styleUrl>
        <Point>
          <coordinates>-6.081900,41.979880,755</coordinates>
        </Point>
      </Placemark>
      <Placemark id="wp244">
        <name>Olleros de Tera</name>
        <description><![CDATA[Accommodation: R<br>From Sevilla: 674.7 km<br>To Santiago de Compostela: 308.7 km<br>Altitude: 749 m<br>Latitude: 41.983920º<br>Longitude: -6.100790º]]></description>
        <styleUrl>#Camino4</styleUrl>
        <Point>
          <coordinates>-6.100790,41.983920,749</coordinates>
        </Point>
      </Placemark>
      <Placemark id="wp247">
        <name>Embalse de Agavanzal</name>
        <description><![CDATA[Where: dam<br>From Sevilla: 679.7 km<br>To Santiago de Compostela: 303.7 km<br>Altitude: 781 m<br>Latitude: 41.978421º<br>Longitude: -6.141551º]]></description>
        <styleUrl>#Camino4</styleUrl>
        <Point>
          <coordinates>-6.141551,41.978421,781</coordinates>
        </Point>
      </Placemark>
      <Placemark id="wp248">
        <name>Villar de Farfón</name>
        <description><![CDATA[From Sevilla: 682.9 km<br>To Santiago de Compostela: 300.5 km<br>Altitude: 806 m<br>Latitude: 41.978830º<br>Longitude: -6.169590º]]></description>
        <styleUrl>#Camino4</styleUrl>
        <Point>
          <coordinates>-6.169590,41.978830,806</coordinates>
        </Point>
      </Placemark>
      <Placemark id="wp250">
        <name>Rionegro del Puente</name>
        <description><![CDATA[Where: church<br>Accommodation: R, H<br>From Sevilla: 689.1 km<br>To Santiago de Compostela: 294.3 km<br>Altitude: 798 m<br>Latitude: 42.006400º<br>Longitude: -6.226940º]]></description>
        <styleUrl>#Camino4</styleUrl>
        <Point>
          <coordinates>-6.226940,42.006400,798</coordinates>
        </Point>
      </Placemark>
      <Placemark id="wp252">
        <name>Mombuey</name>
        <description><![CDATA[Accommodation: R, H<br>From Sevilla: 698.6 km<br>To Santiago de Compostela: 284.8 km<br>Altitude: 890 m<br>Latitude: 42.023410º<br>Longitude: -6.331390º]]></description>
        <styleUrl>#Camino4</styleUrl>
        <Point>
          <coordinates>-6.331390,42.023410,890</coordinates>
        </Point>
      </Placemark>
      <Placemark id="wp253">
        <name>Valdemerilla</name>
        <description><![CDATA[From Sevilla: 703.2 km<br>To Santiago de Compostela: 280.2 km<br>Altitude: 896 m<br>Latitude: 42.014870º<br>Longitude: -6.377570º]]></description>
        <styleUrl>#Camino4</styleUrl>
        <Point>
          <coordinates>-6.377570,42.014870,896</coordinates>
        </Point>
      </Placemark>
      <Placemark id="wp254">
        <name>Cernadilla</name>
        <description><![CDATA[Accommodation: R<br>From Sevilla: 706.7 km<br>To Santiago de Compostela: 276.7 km<br>Altitude: 905 m<br>Latitude: 42.020470º<br>Longitude: -6.416780º]]></description>
        <styleUrl>#Camino4</styleUrl>
        <Point>
          <coordinates>-6.416780,42.020470,905</coordinates>
        </Point>
      </Placemark>
      <Placemark id="wp255">
        <name>San Salvador de Palazuelo</name>
        <description><![CDATA[Accommodation: R<br>From Sevilla: 708.6 km<br>To Santiago de Compostela: 274.8 km<br>Altitude: 912 m<br>Latitude: 42.021920º<br>Longitude: -6.438170º]]></description>
        <styleUrl>#Camino4</styleUrl>
        <Point>
          <coordinates>-6.438170,42.021920,912</coordinates>
        </Point>
      </Placemark>
      <Placemark id="wp256">
        <name>Entrepeñas</name>
        <description><![CDATA[From Sevilla: 712.2 km<br>To Santiago de Compostela: 271.2 km<br>Altitude: 907 m<br>Latitude: 42.032240º<br>Longitude: -6.474130º]]></description>
        <styleUrl>#Camino4</styleUrl>
        <Point>
          <coordinates>-6.474130,42.032240,907</coordinates>
        </Point>
      </Placemark>
      <Placemark id="wp257">
        <name>Asturianos</name>
        <description><![CDATA[From Sevilla: 715.3 km<br>To Santiago de Compostela: 268.1 km<br>Altitude: 966 m<br>Latitude: 42.051340º<br>Longitude: -6.490310º]]></description>
        <styleUrl>#Camino4</styleUrl>
        <Point>
          <coordinates>-6.490310,42.051340,966</coordinates>
        </Point>
      </Placemark>
      <Placemark id="wp258">
        <name>Palacios de Sanabria</name>
        <description><![CDATA[From Sevilla: 718.8 km<br>To Santiago de Compostela: 264.6 km<br>Altitude: 981 m<br>Latitude: 42.059670º<br>Longitude: -6.522340º]]></description>
        <styleUrl>#Camino4</styleUrl>
        <Point>
          <coordinates>-6.522340,42.059670,981</coordinates>
        </Point>
      </Placemark>
      <Placemark id="wp259">
        <name>Remesal</name>
        <description><![CDATA[From Sevilla: 721.3 km<br>To Santiago de Compostela: 262.1 km<br>Altitude: 1,001 m<br>Latitude: 42.057490º<br>Longitude: -6.549280º]]></description>
        <styleUrl>#Camino4</styleUrl>
        <Point>
          <coordinates>-6.549280,42.057490,1001</coordinates>
        </Point>
      </Placemark>
      <Placemark id="wp260">
        <name>Otero de Sanabria</name>
        <description><![CDATA[From Sevilla: 724.1 km<br>To Santiago de Compostela: 259.3 km<br>Altitude: 956 m<br>Latitude: 42.049730º<br>Longitude: -6.573320º]]></description>
        <styleUrl>#Camino4</styleUrl>
        <Point>
          <coordinates>-6.573320,42.049730,956</coordinates>
        </Point>
      </Placemark>
      <Placemark id="wp261">
        <name>Triufé</name>
        <description><![CDATA[From Sevilla: 726.9 km<br>To Santiago de Compostela: 256.5 km<br>Altitude: 950 m<br>Latitude: 42.060250º<br>Longitude: -6.594290º]]></description>
        <styleUrl>#Camino4</styleUrl>
        <Point>
          <coordinates>-6.594290,42.060250,950</coordinates>
        </Point>
      </Placemark>
      <Placemark id="wp262">
        <name>Puebla de Sanabria</name>
        <description><![CDATA[Where: town hall<br>Accommodation: R, H<br>From Sevilla: 730.9 km<br>To Santiago de Compostela: 252.5 km<br>Altitude: 936 m<br>Latitude: 42.054580º<br>Longitude: -6.634120º]]></description>
        <styleUrl>#Camino4</styleUrl>
        <Point>
          <coordinates>-6.634120,42.054580,936</coordinates>
        </Point>
      </Placemark>
      <Placemark id="wp263">
        <name>Terroso</name>
        <description><![CDATA[From Sevilla: 740.2 km<br>To Santiago de Compostela: 243.2 km<br>Altitude: 973 m<br>Latitude: 42.035280º<br>Longitude: -6.725460º]]></description>
        <styleUrl>#Camino4</styleUrl>
        <Point>
          <coordinates>-6.725460,42.035280,973</coordinates>
        </Point>
      </Placemark>
      <Placemark id="wp264">
        <name>Requejo de Sanabria</name>
        <description><![CDATA[Accommodation: R, H<br>From Sevilla: 742.4 km<br>To Santiago de Compostela: 241.0 km<br>Altitude: 986 m<br>Latitude: 42.030630º<br>Longitude: -6.742720º]]></description>
        <styleUrl>#Camino4</styleUrl>
        <Point>
          <coordinates>-6.742720,42.030630,986</coordinates>
        </Point>
      </Placemark>
      <Placemark id="wp267">
        <name>Padornelo</name>
        <description><![CDATA[Accommodation: H<br>From Sevilla: 753.9 km<br>To Santiago de Compostela: 229.5 km<br>Altitude: 1,305 m<br>Latitude: 42.033430º<br>Longitude: -6.837040º]]></description>
        <styleUrl>#Camino4</styleUrl>
        <Point>
          <coordinates>-6.837040,42.033430,1305</coordinates>
        </Point>
      </Placemark>
      <Placemark id="wp268">
        <name>Aciberos</name>
        <description><![CDATA[From Sevilla: 757.3 km<br>To Santiago de Compostela: 226.1 km<br>Altitude: 1,114 m<br>Latitude: 42.039840º<br>Longitude: -6.874990º]]></description>
        <styleUrl>#Camino4</styleUrl>
        <Point>
          <coordinates>-6.874990,42.039840,1114</coordinates>
        </Point>
      </Placemark>
      <Placemark id="wp270">
        <name>Lubián</name>
        <description><![CDATA[Where: pilgrims hostel<br>Accommodation: R, H<br>From Sevilla: 760.3 km<br>To Santiago de Compostela: 223.1 km<br>Altitude: 1,015 m<br>Latitude: 42.034680º<br>Longitude: -6.901780º]]></description>
        <styleUrl>#Camino4</styleUrl>
        <Point>
          <coordinates>-6.901780,42.034680,1015</coordinates>
        </Point>
      </Placemark>
      <Placemark id="wp274">
        <name>Portela de la Canda</name>
        <description><![CDATA[From Sevilla: 767.8 km<br>To Santiago de Compostela: 215.6 km<br>Altitude: 1,263 m<br>Latitude: 42.033150º<br>Longitude: -6.964580º]]></description>
        <styleUrl>#Camino4</styleUrl>
        <Point>
          <coordinates>-6.964580,42.033150,1263</coordinates>
        </Point>
      </Placemark>
      <Placemark id="wp275">
        <name>A Canda</name>
        <description><![CDATA[From Sevilla: 769.1 km<br>To Santiago de Compostela: 214.3 km<br>Altitude: 1,149 m<br>Latitude: 42.035080º<br>Longitude: -6.979860º]]></description>
        <styleUrl>#Camino4</styleUrl>
        <Point>
          <coordinates>-6.979860,42.035080,1149</coordinates>
        </Point>
      </Placemark>
      <Placemark id="wp276">
        <name>Vilavella</name>
        <description><![CDATA[Accommodation: H<br>From Sevilla: 772.4 km<br>To Santiago de Compostela: 211.0 km<br>Altitude: 1,040 m<br>Latitude: 42.036760º<br>Longitude: -7.013820º]]></description>
        <styleUrl>#Camino4</styleUrl>
        <Point>
          <coordinates>-7.013820,42.036760,1040</coordinates>
        </Point>
      </Placemark>
      <Placemark id="wp277">
        <name>O Pereiro</name>
        <description><![CDATA[From Sevilla: 776.1 km<br>To Santiago de Compostela: 207.3 km<br>Altitude: 947 m<br>Latitude: 42.030990º<br>Longitude: -7.051320º]]></description>
        <styleUrl>#Camino4</styleUrl>
        <Point>
          <coordinates>-7.051320,42.030990,947</coordinates>
        </Point>
      </Placemark>
      <Placemark id="wp278">
        <name>O Cañizo</name>
        <description><![CDATA[Accommodation: H<br>From Sevilla: 781.7 km<br>To Santiago de Compostela: 201.7 km<br>Altitude: 1,053 m<br>Latitude: 42.051050º<br>Longitude: -7.102210º]]></description>
        <styleUrl>#Camino4</styleUrl>
        <Point>
          <coordinates>-7.102210,42.051050,1053</coordinates>
        </Point>
      </Placemark>
      <Placemark id="wp280">
        <name>La Gudiña</name>
        <description><![CDATA[Accommodation: R, H<br>From Sevilla: 785.1 km<br>To Santiago de Compostela: 198.3 km<br>Altitude: 976 m<br>Latitude: 42.061070º<br>Longitude: -7.136880º]]></description>
        <styleUrl>#Camino4</styleUrl>
        <Point>
          <coordinates>-7.136880,42.061070,976</coordinates>
        </Point>
      </Placemark>
      <Placemark id="wp282">
        <name>Venda do Espiño</name>
        <description><![CDATA[From Sevilla: 789.6 km<br>To Santiago de Compostela: 193.8 km<br>Altitude: 1,080 m<br>Latitude: 42.073610º<br>Longitude: -7.183660º]]></description>
        <styleUrl>#Camino4</styleUrl>
        <Point>
          <coordinates>-7.183660,42.073610,1080</coordinates>
        </Point>
      </Placemark>
      <Placemark id="wp283">
        <name>Venda da Teresa</name>
        <description><![CDATA[From Sevilla: 792.7 km<br>To Santiago de Compostela: 190.7 km<br>Altitude: 1,045 m<br>Latitude: 42.076930º<br>Longitude: -7.211970º]]></description>
        <styleUrl>#Camino4</styleUrl>
        <Point>
          <coordinates>-7.211970,42.076930,1045</coordinates>
        </Point>
      </Placemark>
      <Placemark id="wp284">
        <name>Venda da Capela</name>
        <description><![CDATA[From Sevilla: 795.1 km<br>To Santiago de Compostela: 188.3 km<br>Altitude: 1,016 m<br>Latitude: 42.070630º<br>Longitude: -7.231180º]]></description>
        <styleUrl>#Camino4</styleUrl>
        <Point>
          <coordinates>-7.231180,42.070630,1016</coordinates>
        </Point>
      </Placemark>
      <Placemark id="wp285">
        <name>Venda do Bolaño</name>
        <description><![CDATA[From Sevilla: 798.4 km<br>To Santiago de Compostela: 185.0 km<br>Altitude: 1,076 m<br>Latitude: 42.066310º<br>Longitude: -7.266070º]]></description>
        <styleUrl>#Camino4</styleUrl>
        <Point>
          <coordinates>-7.266070,42.066310,1076</coordinates>
        </Point>
      </Placemark>
      <Placemark id="wp287">
        <name>Campobecerros</name>
        <description><![CDATA[Accommodation: H<br>From Sevilla: 805.2 km<br>To Santiago de Compostela: 178.2 km<br>Altitude: 901 m<br>Latitude: 42.066820º<br>Longitude: -7.330690º]]></description>
        <styleUrl>#Camino4</styleUrl>
        <Point>
          <coordinates>-7.330690,42.066820,901</coordinates>
        </Point>
      </Placemark>
      <Placemark id="wp289">
        <name>Porto Camba</name>
        <description><![CDATA[From Sevilla: 808.3 km<br>To Santiago de Compostela: 175.1 km<br>Altitude: 944 m<br>Latitude: 42.069360º<br>Longitude: -7.364330º]]></description>
        <styleUrl>#Camino4</styleUrl>
        <Point>
          <coordinates>-7.364330,42.069360,944</coordinates>
        </Point>
      </Placemark>
      <Placemark id="wp291">
        <name>As Eiras</name>
        <description><![CDATA[From Sevilla: 813.6 km<br>To Santiago de Compostela: 169.8 km<br>Altitude: 764 m<br>Latitude: 42.061960º<br>Longitude: -7.407670º]]></description>
        <styleUrl>#Camino4</styleUrl>
        <Point>
          <coordinates>-7.407670,42.061960,764</coordinates>
        </Point>
      </Placemark>
      <Placemark id="wp292">
        <name>Laza</name>
        <description><![CDATA[Where: Protección Civil<br>Accommodation: R<br>From Sevilla: 819.8 km<br>To Santiago de Compostela: 163.6 km<br>Altitude: 470 m<br>Latitude: 42.060920º<br>Longitude: -7.460030º]]></description>
        <styleUrl>#Camino4</styleUrl>
        <Point>
          <coordinates>-7.460030,42.060920,470</coordinates>
        </Point>
      </Placemark>
      <Placemark id="wp293">
        <name>Soutelo Verde</name>
        <description><![CDATA[From Sevilla: 823.5 km<br>To Santiago de Compostela: 159.9 km<br>Altitude: 498 m<br>Latitude: 42.076610º<br>Longitude: -7.497250º]]></description>
        <styleUrl>#Camino4</styleUrl>
        <Point>
          <coordinates>-7.497250,42.076610,498</coordinates>
        </Point>
      </Placemark>
      <Placemark id="wp294">
        <name>Tamicelas</name>
        <description><![CDATA[From Sevilla: 826.3 km<br>To Santiago de Compostela: 157.1 km<br>Altitude: 552 m<br>Latitude: 42.099140º<br>Longitude: -7.507610º]]></description>
        <styleUrl>#Camino4</styleUrl>
        <Point>
          <coordinates>-7.507610,42.099140,552</coordinates>
        </Point>
      </Placemark>
      <Placemark id="wp295">
        <name>Alberguería</name>
        <description><![CDATA[From Sevilla: 831.6 km<br>To Santiago de Compostela: 151.8 km<br>Altitude: 893 m<br>Latitude: 42.121880º<br>Longitude: -7.551380º]]></description>
        <styleUrl>#Camino4</styleUrl>
        <Point>
          <coordinates>-7.551380,42.121880,893</coordinates>
        </Point>
      </Placemark>
      <Placemark id="wp297">
        <name>Vilar do Barrio</name>
        <description><![CDATA[Where: pilgrims hostel<br>Accommodation: R<br>From Sevilla: 839.0 km<br>To Santiago de Compostela: 144.4 km<br>Altitude: 661 m<br>Latitude: 42.160330º<br>Longitude: -7.610750º]]></description>
        <styleUrl>#Camino4</styleUrl>
        <Point>
          <coordinates>-7.610750,42.160330,661</coordinates>
        </Point>
      </Placemark>
      <Placemark id="wp298">
        <name>Bóveda</name>
        <description><![CDATA[From Sevilla: 841.1 km<br>To Santiago de Compostela: 142.3 km<br>Altitude: 662 m<br>Latitude: 42.163470º<br>Longitude: -7.643190º]]></description>
        <styleUrl>#Camino4</styleUrl>
        <Point>
          <coordinates>-7.643190,42.163470,662</coordinates>
        </Point>
      </Placemark>
      <Placemark id="wp299">
        <name>Vilar do Gomareite</name>
        <description><![CDATA[From Sevilla: 842.1 km<br>To Santiago de Compostela: 141.3 km<br>Altitude: 660 m<br>Latitude: 42.163720º<br>Longitude: -7.643550º]]></description>
        <styleUrl>#Camino4</styleUrl>
        <Point>
          <coordinates>-7.643550,42.163720,660</coordinates>
        </Point>
      </Placemark>
      <Placemark id="wp300">
        <name>Bobadela Pinta</name>
        <description><![CDATA[From Sevilla: 847.6 km<br>To Santiago de Compostela: 135.8 km<br>Altitude: 658 m<br>Latitude: 42.178840º<br>Longitude: -7.691160º]]></description>
        <styleUrl>#Camino4</styleUrl>
        <Point>
          <coordinates>-7.691160,42.178840,658</coordinates>
        </Point>
      </Placemark>
      <Placemark id="wp301">
        <name>Padroso</name>
        <description><![CDATA[From Sevilla: 848.7 km<br>To Santiago de Compostela: 134.7 km<br>Altitude: 682 m<br>Latitude: 42.181480º<br>Longitude: -7.702420º]]></description>
        <styleUrl>#Camino4</styleUrl>
        <Point>
          <coordinates>-7.702420,42.181480,682</coordinates>
        </Point>
      </Placemark>
      <Placemark id="wp303">
        <name>Cimadevila</name>
        <description><![CDATA[From Sevilla: 850.3 km<br>To Santiago de Compostela: 133.1 km<br>Altitude: 669 m<br>Latitude: 42.185840º<br>Longitude: -7.718630º]]></description>
        <styleUrl>#Camino4</styleUrl>
        <Point>
          <coordinates>-7.718630,42.185840,669</coordinates>
        </Point>
      </Placemark>
      <Placemark id="wp304">
        <name>Quintela</name>
        <description><![CDATA[From Sevilla: 851.7 km<br>To Santiago de Compostela: 131.7 km<br>Altitude: 591 m<br>Latitude: 42.195210º<br>Longitude: -7.728130º]]></description>
        <styleUrl>#Camino4</styleUrl>
        <Point>
          <coordinates>-7.728130,42.195210,591</coordinates>
        </Point>
      </Placemark>
      <Placemark id="wp305">
        <name>Xunqueira de Ambía</name>
        <description><![CDATA[Where: pilgrims hostel<br>Accommodation: R, H<br>From Sevilla: 852.5 km<br>To Santiago de Compostela: 130.9 km<br>Altitude: 557 m<br>Latitude: 42.201230º<br>Longitude: -7.730660º]]></description>
        <styleUrl>#Camino4</styleUrl>
        <Point>
          <coordinates>-7.730660,42.201230,557</coordinates>
        </Point>
      </Placemark>
      <Placemark id="wp306">
        <name>Río Arnoia</name>
        <description><![CDATA[Where: bridge<br>From Sevilla: 854.0 km<br>To Santiago de Compostela: 129.4 km<br>Altitude: 456 m<br>Latitude: 42.211360º<br>Longitude: -7.739120º]]></description>
        <styleUrl>#Camino4</styleUrl>
        <Point>
          <coordinates>-7.739120,42.211360,456</coordinates>
        </Point>
      </Placemark>
      <Placemark id="wp307">
        <name>A Pousa</name>
        <description><![CDATA[From Sevilla: 856.2 km<br>To Santiago de Compostela: 127.2 km<br>Altitude: 553 m<br>Latitude: 42.225950º<br>Longitude: -7.750330º]]></description>
        <styleUrl>#Camino4</styleUrl>
        <Point>
          <coordinates>-7.750330,42.225950,553</coordinates>
        </Point>
      </Placemark>
      <Placemark id="wp308">
        <name>Salgueiros</name>
        <description><![CDATA[From Sevilla: 857.3 km<br>To Santiago de Compostela: 126.1 km<br>Altitude: 531 m<br>Latitude: 42.235000º<br>Longitude: -7.747580º]]></description>
        <styleUrl>#Camino4</styleUrl>
        <Point>
          <coordinates>-7.747580,42.235000,531</coordinates>
        </Point>
      </Placemark>
      <Placemark id="wp309">
        <name>Veirada</name>
        <description><![CDATA[From Sevilla: 859.5 km<br>To Santiago de Compostela: 123.9 km<br>Altitude: 450 m<br>Latitude: 42.250560º<br>Longitude: -7.752650º]]></description>
        <styleUrl>#Camino4</styleUrl>
        <Point>
          <coordinates>-7.752650,42.250560,450</coordinates>
        </Point>
      </Placemark>
      <Placemark id="wp310">
        <name>Ousende</name>
        <description><![CDATA[From Sevilla: 860.4 km<br>To Santiago de Compostela: 123.0 km<br>Altitude: 406 m<br>Latitude: 42.253350º<br>Longitude: -7.761710º]]></description>
        <styleUrl>#Camino4</styleUrl>
        <Point>
          <coordinates>-7.761710,42.253350,406</coordinates>
        </Point>
      </Placemark>
      <Placemark id="wp311">
        <name>A Neta</name>
        <description><![CDATA[From Sevilla: 861.2 km<br>To Santiago de Compostela: 122.2 km<br>Altitude: 387 m<br>Latitude: 42.256320º<br>Longitude: -7.770460º]]></description>
        <styleUrl>#Camino4</styleUrl>
        <Point>
          <coordinates>-7.770460,42.256320,387</coordinates>
        </Point>
      </Placemark>
      <Placemark id="wp312">
        <name>Venda do Río</name>
        <description><![CDATA[From Sevilla: 863.3 km<br>To Santiago de Compostela: 120.1 km<br>Altitude: 345 m<br>Latitude: 42.264590º<br>Longitude: -7.792950º]]></description>
        <styleUrl>#Camino4</styleUrl>
        <Point>
          <coordinates>-7.792950,42.264590,345</coordinates>
        </Point>
      </Placemark>
      <Placemark id="wp313">
        <name>Pereiras</name>
        <description><![CDATA[From Sevilla: 863.8 km<br>To Santiago de Compostela: 119.6 km<br>Altitude: 346 m<br>Latitude: 42.264960º<br>Longitude: -7.798500º]]></description>
        <styleUrl>#Camino4</styleUrl>
        <Point>
          <coordinates>-7.798500,42.264960,346</coordinates>
        </Point>
      </Placemark>
      <Placemark id="wp314">
        <name>A Castellana</name>
        <description><![CDATA[From Sevilla: 866.1 km<br>To Santiago de Compostela: 117.3 km<br>Altitude: 303 m<br>Latitude: 42.279080º<br>Longitude: -7.817040º]]></description>
        <styleUrl>#Camino4</styleUrl>
        <Point>
          <coordinates>-7.817040,42.279080,303</coordinates>
        </Point>
      </Placemark>
      <Placemark id="wp315">
        <name>Reboredo</name>
        <description><![CDATA[From Sevilla: 868.3 km<br>To Santiago de Compostela: 115.1 km<br>Altitude: 274 m<br>Latitude: 42.290320º<br>Longitude: -7.834610º]]></description>
        <styleUrl>#Camino4</styleUrl>
        <Point>
          <coordinates>-7.834610,42.290320,274</coordinates>
        </Point>
      </Placemark>
      <Placemark id="wp316">
        <name>Seixalbo</name>
        <description><![CDATA[From Sevilla: 871.0 km<br>To Santiago de Compostela: 112.4 km<br>Altitude: 203 m<br>Latitude: 42.304970º<br>Longitude: -7.856600º]]></description>
        <styleUrl>#Camino4</styleUrl>
        <Point>
          <coordinates>-7.856600,42.304970,203</coordinates>
        </Point>
      </Placemark>
      <Placemark id="wp318">
        <name>Orense</name>
        <description><![CDATA[Where: pilgrims hostel<br>Accommodation: R, A, H<br>From Sevilla: 874.8 km<br>To Santiago de Compostela: 108.6 km<br>Altitude: 174 m<br>Latitude: 42.336660º<br>Longitude: -7.860630º]]></description>
        <styleUrl>#Camino4</styleUrl>
        <Point>
          <coordinates>-7.860630,42.336660,174</coordinates>
        </Point>
      </Placemark>
      <Placemark id="wp319">
        <name>Río Miño</name>
        <description><![CDATA[Where: roman bridge<br>From Sevilla: 876.3 km<br>To Santiago de Compostela: 107.1 km<br>Altitude: 106 m<br>Latitude: 42.346320º<br>Longitude: -7.868690º]]></description>
        <styleUrl>#Camino4</styleUrl>
        <Point>
          <coordinates>-7.868690,42.346320,106</coordinates>
        </Point>
      </Placemark>
      <Placemark id="wp321">
        <name>Cudeiro</name>
        <description><![CDATA[From Sevilla: 879.0 km<br>To Santiago de Compostela: 104.4 km<br>Altitude: 222 m<br>Latitude: 42.368220º<br>Longitude: -7.860560º]]></description>
        <styleUrl>#Camino4</styleUrl>
        <Point>
          <coordinates>-7.860560,42.368220,222</coordinates>
        </Point>
      </Placemark>
      <Placemark id="wp323">
        <name>Tamallancos</name>
        <description><![CDATA[From Sevilla: 887.2 km<br>To Santiago de Compostela: 96.2 km<br>Altitude: 444 m<br>Latitude: 42.427040º<br>Longitude: -7.902180º]]></description>
        <styleUrl>#Camino4</styleUrl>
        <Point>
          <coordinates>-7.902180,42.427040,444</coordinates>
        </Point>
      </Placemark>
      <Placemark id="wp324">
        <name>Bouzas</name>
        <description><![CDATA[From Sevilla: 887.9 km<br>To Santiago de Compostela: 95.5 km<br>Altitude: 448 m<br>Latitude: 42.431760º<br>Longitude: -7.907170º]]></description>
        <styleUrl>#Camino4</styleUrl>
        <Point>
          <coordinates>-7.907170,42.431760,448</coordinates>
        </Point>
      </Placemark>
      <Placemark id="wp325">
        <name>Viduedo</name>
        <description><![CDATA[From Sevilla: 893.1 km<br>To Santiago de Compostela: 90.3 km<br>Altitude: 473 m<br>Latitude: 42.457040º<br>Longitude: -7.950350º]]></description>
        <styleUrl>#Camino4</styleUrl>
        <Point>
          <coordinates>-7.950350,42.457040,473</coordinates>
        </Point>
      </Placemark>
      <Placemark id="wp326">
        <name>Casas Novas</name>
        <description><![CDATA[From Sevilla: 895.2 km<br>To Santiago de Compostela: 88.2 km<br>Altitude: 492 m<br>Latitude: 42.463620º<br>Longitude: -7.972660º]]></description>
        <styleUrl>#Camino4</styleUrl>
        <Point>
          <coordinates>-7.972660,42.463620,492</coordinates>
        </Point>
      </Placemark>
      <Placemark id="wp327">
        <name>Cea</name>
        <description><![CDATA[Accommodation: R<br>From Sevilla: 897.1 km<br>To Santiago de Compostela: 86.3 km<br>Altitude: 509 m<br>Latitude: 42.473420º<br>Longitude: -7.986460º]]></description>
        <styleUrl>#Camino4</styleUrl>
        <Point>
          <coordinates>-7.986460,42.473420,509</coordinates>
        </Point>
      </Placemark>
      <Placemark id="wp328">
        <name>Pielas</name>
        <description><![CDATA[From Sevilla: 903.1 km<br>To Santiago de Compostela: 80.3 km<br>Altitude: 670 m<br>Latitude: 42.518870º<br>Longitude: -7.962840º]]></description>
        <styleUrl>#Camino4</styleUrl>
        <Point>
          <coordinates>-7.962840,42.518870,670</coordinates>
        </Point>
      </Placemark>
      <Placemark id="wp329">
        <name>Oseira</name>
        <description><![CDATA[Accommodation: R/H<br>From Sevilla: 906.0 km<br>To Santiago de Compostela: 77.4 km<br>Altitude: 661 m<br>Latitude: 42.539460º<br>Longitude: -7.950570º]]></description>
        <styleUrl>#Camino4</styleUrl>
        <Point>
          <coordinates>-7.950570,42.539460,661</coordinates>
        </Point>
      </Placemark>
      <Placemark id="wp330">
        <name>Vilarello</name>
        <description><![CDATA[From Sevilla: 908.1 km<br>To Santiago de Compostela: 75.3 km<br>Altitude: 778 m<br>Latitude: 42.545670º<br>Longitude: -7.968260º]]></description>
        <styleUrl>#Camino4</styleUrl>
        <Point>
          <coordinates>-7.968260,42.545670,778</coordinates>
        </Point>
      </Placemark>
      <Placemark id="wp331">
        <name>O Outeiro</name>
        <description><![CDATA[From Sevilla: 910.5 km<br>To Santiago de Compostela: 72.9 km<br>Altitude: 699 m<br>Latitude: 42.548500º<br>Longitude: -7.992060º]]></description>
        <styleUrl>#Camino4</styleUrl>
        <Point>
          <coordinates>-7.992060,42.548500,699</coordinates>
        </Point>
      </Placemark>
      <Placemark id="wp332">
        <name>A Gouxa</name>
        <description><![CDATA[From Sevilla: 912.5 km<br>To Santiago de Compostela: 70.9 km<br>Altitude: 774 m<br>Latitude: 42.557400º<br>Longitude: -8.009110º]]></description>
        <styleUrl>#Camino4</styleUrl>
        <Point>
          <coordinates>-8.009110,42.557400,774</coordinates>
        </Point>
      </Placemark>
      <Placemark id="wp333">
        <name>Castro-Dozón</name>
        <description><![CDATA[Accommodation: P/H<br>From Sevilla: 916.1 km<br>To Santiago de Compostela: 67.3 km<br>Altitude: 736 m<br>Latitude: 42.568240º<br>Longitude: -8.047600º]]></description>
        <styleUrl>#Camino4</styleUrl>
        <Point>
          <coordinates>-8.047600,42.568240,736</coordinates>
        </Point>
      </Placemark>
      <Placemark id="wp334">
        <name>Puxallos</name>
        <description><![CDATA[From Sevilla: 922.1 km<br>To Santiago de Compostela: 61.3 km<br>Altitude: 652 m<br>Latitude: 42.605810º<br>Longitude: -8.083520º]]></description>
        <styleUrl>#Camino4</styleUrl>
        <Point>
          <coordinates>-8.083520,42.605810,652</coordinates>
        </Point>
      </Placemark>
      <Placemark id="wp335">
        <name>Pontenoufe</name>
        <description><![CDATA[From Sevilla: 924.4 km<br>To Santiago de Compostela: 59.0 km<br>Altitude: 503 m<br>Latitude: 42.611290º<br>Longitude: -8.104770º]]></description>
        <styleUrl>#Camino4</styleUrl>
        <Point>
          <coordinates>-8.104770,42.611290,503</coordinates>
        </Point>
      </Placemark>
      <Placemark id="wp336">
        <name>A Xesta</name>
        <description><![CDATA[From Sevilla: 926.0 km<br>To Santiago de Compostela: 57.4 km<br>Altitude: 574 m<br>Latitude: 42.618020º<br>Longitude: -8.117170º]]></description>
        <styleUrl>#Camino4</styleUrl>
        <Point>
          <coordinates>-8.117170,42.618020,574</coordinates>
        </Point>
      </Placemark>
      <Placemark id="wp338">
        <name>Botos</name>
        <description><![CDATA[From Sevilla: 930.1 km<br>To Santiago de Compostela: 53.3 km<br>Altitude: 520 m<br>Latitude: 42.644960º<br>Longitude: -8.145000º]]></description>
        <styleUrl>#Camino4</styleUrl>
        <Point>
          <coordinates>-8.145000,42.644960,520</coordinates>
        </Point>
      </Placemark>
      <Placemark id="wp340">
        <name>Donsión</name>
        <description><![CDATA[From Sevilla: 932.2 km<br>To Santiago de Compostela: 51.2 km<br>Altitude: 526 m<br>Latitude: 42.660660º<br>Longitude: -8.152810º]]></description>
        <styleUrl>#Camino4</styleUrl>
        <Point>
          <coordinates>-8.152810,42.660660,526</coordinates>
        </Point>
      </Placemark>
      <Placemark id="wp341">
        <name>A Laxe</name>
        <description><![CDATA[Where: pilgrims hostel<br>Accommodation: R<br>From Sevilla: 934.4 km<br>To Santiago de Compostela: 49.0 km<br>Altitude: 471 m<br>Latitude: 42.676580º<br>Longitude: -8.163610º]]></description>
        <styleUrl>#Camino4</styleUrl>
        <Point>
          <coordinates>-8.163610,42.676580,471</coordinates>
        </Point>
      </Placemark>
      <Placemark id="wp342">
        <name>Prado</name>
        <description><![CDATA[From Sevilla: 936.2 km<br>To Santiago de Compostela: 47.2 km<br>Altitude: 455 m<br>Latitude: 42.682290º<br>Longitude: -8.180890º]]></description>
        <styleUrl>#Camino4</styleUrl>
        <Point>
          <coordinates>-8.180890,42.682290,455</coordinates>
        </Point>
      </Placemark>
      <Placemark id="wp344">
        <name>Silleda</name>
        <description><![CDATA[Accommodation: H<br>From Sevilla: 943.5 km<br>To Santiago de Compostela: 39.9 km<br>Altitude: 489 m<br>Latitude: 42.696220º<br>Longitude: -8.247220º]]></description>
        <styleUrl>#Camino4</styleUrl>
        <Point>
          <coordinates>-8.247220,42.696220,489</coordinates>
        </Point>
      </Placemark>
      <Placemark id="wp345">
        <name>Bandeira</name>
        <description><![CDATA[Accommodation: R/C, H<br>From Sevilla: 950.3 km<br>To Santiago de Compostela: 33.1 km<br>Altitude: 353 m<br>Latitude: 42.728940º<br>Longitude: -8.302900º]]></description>
        <styleUrl>#Camino4</styleUrl>
        <Point>
          <coordinates>-8.302900,42.728940,353</coordinates>
        </Point>
      </Placemark>
      <Placemark id="wp346">
        <name>Dornelas</name>
        <description><![CDATA[From Sevilla: 955.4 km<br>To Santiago de Compostela: 28.0 km<br>Altitude: 300 m<br>Latitude: 42.755530º<br>Longitude: -8.338170º]]></description>
        <styleUrl>#Camino4</styleUrl>
        <Point>
          <coordinates>-8.338170,42.755530,300</coordinates>
        </Point>
      </Placemark>
      <Placemark id="wp348">
        <name>San Miguel de Castro</name>
        <description><![CDATA[From Sevilla: 960.4 km<br>To Santiago de Compostela: 23.0 km<br>Altitude: 257 m<br>Latitude: 42.773290º<br>Longitude: -8.383770º]]></description>
        <styleUrl>#Camino4</styleUrl>
        <Point>
          <coordinates>-8.383770,42.773290,257</coordinates>
        </Point>
      </Placemark>
      <Placemark id="wp349">
        <name>Ponte Ulla</name>
        <description><![CDATA[Accommodation: R, H<br>From Sevilla: 963.2 km<br>To Santiago de Compostela: 20.2 km<br>Altitude: 65 m<br>Latitude: 42.778500º<br>Longitude: -8.402930º]]></description>
        <styleUrl>#Camino4</styleUrl>
        <Point>
          <coordinates>-8.402930,42.778500,65</coordinates>
        </Point>
      </Placemark>
      <Placemark id="wp351">
        <name>Outeiro</name>
        <description><![CDATA[Where: pilgrims hostel<br>Accommodation: R<br>From Sevilla: 967.4 km<br>To Santiago de Compostela: 16.0 km<br>Altitude: 283 m<br>Latitude: 42.791340º<br>Longitude: -8.434320º]]></description>
        <styleUrl>#Camino4</styleUrl>
        <Point>
          <coordinates>-8.434320,42.791340,283</coordinates>
        </Point>
      </Placemark>
      <Placemark id="wp352">
        <name>A Susana</name>
        <description><![CDATA[From Sevilla: 974.3 km<br>To Santiago de Compostela: 9.1 km<br>Altitude: 210 m<br>Latitude: 42.825030º<br>Longitude: -8.488260º]]></description>
        <styleUrl>#Camino4</styleUrl>
        <Point>
          <coordinates>-8.488260,42.825030,210</coordinates>
        </Point>
      </Placemark>
      <Placemark id="wp354">
        <name>Santiago de Compostela</name>
        <description><![CDATA[Where: cathedral<br>Accommodation: R, P, C, H<br>From Sevilla: 983.4 km<br>To Santiago de Compostela: 0.0 km<br>Altitude: 253 m<br>Latitude: 42.880538º<br>Longitude: -8.545305º]]></description>
        <styleUrl>#Camino4</styleUrl>
        <Point>
          <coordinates>-8.545305,42.880538,253</coordinates>
        </Point>
      </Placemark>
    </Folder>
    <Folder>
      <name>Off the route</name>
      <visibility>1</visibility>
      <open>1</open>
      <Placemark id="fr1">
        <name>Albergue de El Real de la Jara</name>
        <description><![CDATA[Altitude: 497 m<br>Latitude: 37.947651º<br>Longitude: -6.148965º<br>]]></description>
        <styleUrl>#Camino4</styleUrl>
        <Point>
          <coordinates>-6.148965,37.947651,497</coordinates>
        </Point>
      </Placemark>
      <Placemark id="fr2">
        <name>Venta El Culebrín</name>
        <description><![CDATA[Altitude: 522 m<br>Latitude: 38.025506º<br>Longitude: -6.219697º<br>]]></description>
        <styleUrl>#Camino4</styleUrl>
        <Point>
          <coordinates>-6.219697,38.025506,522</coordinates>
        </Point>
      </Placemark>
      <Placemark id="fr3">
        <name>Albergue de Fuente de Cantos</name>
        <description><![CDATA[Altitude: 562 m<br>Latitude: 38.244056º<br>Longitude: -6.313299º<br>]]></description>
        <styleUrl>#Camino4</styleUrl>
        <Point>
          <coordinates>-6.313299,38.244056,562</coordinates>
        </Point>
      </Placemark>
      <Placemark id="fr4">
        <name>Albergue de Calzadilla de los Barros</name>
        <description><![CDATA[Altitude: 590 m<br>Latitude: 38.305450º<br>Longitude: -6.336074º<br>]]></description>
        <styleUrl>#Camino4</styleUrl>
        <Point>
          <coordinates>-6.336074,38.305450,590</coordinates>
        </Point>
      </Placemark>
      <Placemark id="fr5">
        <name>Albergue de la Almazara</name>
        <description><![CDATA[500 m off the route<br>Accommodation: T<br>Altitude: 480 m<br>Latitude: 38.514610º<br>Longitude: -6.357033º<br>]]></description>
        <styleUrl>#Camino4</styleUrl>
        <Point>
          <coordinates>-6.357033,38.514610,480</coordinates>
        </Point>
      </Placemark>
      <Placemark id="fr6">
        <name>Almendralejo</name>
        <description><![CDATA[3.3 km off the route<br>Accommodation: H<br>Altitude: 349 m<br>Latitude: 38.683368º<br>Longitude: -6.399693º<br>]]></description>
        <styleUrl>#Camino4</styleUrl>
        <Point>
          <coordinates>-6.399693,38.683368,349</coordinates>
        </Point>
      </Placemark>
      <Placemark id="fr7">
        <name>Albergue de Aljucén</name>
        <description><![CDATA[Altitude: 275 m<br>Latitude: 39.042816º<br>Longitude: -6.330054º]]></description>
        <styleUrl>#Camino4</styleUrl>
        <Point>
          <coordinates>-6.330054,39.042816,275</coordinates>
        </Point>
      </Placemark>
      <Placemark id="fr8">
        <name>Albergue del Embalse de Alcántara</name>
        <description><![CDATA[600 m off the route<br>Accommodation: T, H<br>Altitude: 239 m<br>Latitude: 39.729896º<br>Longitude: -6.454116º]]></description>
        <styleUrl>#Camino4</styleUrl>
        <Point>
          <coordinates>-6.454116,39.729896,239</coordinates>
        </Point>
      </Placemark>
      <Placemark id="fr9">
        <name>Grimaldo</name>
        <description><![CDATA[1 km off the route<br>Accommodation: R<br>Altitude: 469 m<br>Latitude: 39.839440º<br>Longitude: -6.349511º<br>]]></description>
        <styleUrl>#Camino4</styleUrl>
        <Point>
          <coordinates>-6.349511,39.839440,469</coordinates>
        </Point>
      </Placemark>
      <Placemark id="fr10">
        <name>Oliva de Plasencia</name>
        <description><![CDATA[Accommodation: T<br>Altitude: 405 m<br>Latitude: 40.111893º<br>Longitude: -6.086059º<br>]]></description>
        <styleUrl>#Camino4</styleUrl>
        <Point>
          <coordinates>-6.086059,40.111893,405</coordinates>
        </Point>
      </Placemark>
      <Placemark id="fr11">
        <name>Hostal Asturias</name>
        <description><![CDATA[2 km off the route<br>Altitude: 403 m<br>Latitude: 40.186660º<br>Longitude: -6.007759º<br>]]></description>
        <styleUrl>#Camino4</styleUrl>
        <Point>
          <coordinates>-6.007759,40.186660,403</coordinates>
        </Point>
      </Placemark>
      <Placemark id="fr12">
        <name>Miranda de Azán</name>
        <description><![CDATA[400 m off the route<br>Altitude: 823 m<br>Latitude: 40.887119º<br>Longitude: -5.682812º<br>]]></description>
        <styleUrl>#Camino4</styleUrl>
        <Point>
          <coordinates>-5.682812,40.887119,823</coordinates>
        </Point>
      </Placemark>
      <Placemark id="fr13">
        <name>Monasterio de Moreruela</name>
        <description><![CDATA[Altitude: 693 m<br>Latitude: 41.812190º<br>Longitude: -5.777257º<br>]]></description>
        <styleUrl>#Camino4</styleUrl>
        <Point>
          <coordinates>-5.777257,41.812190,693</coordinates>
        </Point>
      </Placemark>
      <Placemark id="fr14">
        <name>Santiago Peregrino</name>
        <description><![CDATA[Altitude: 730 m<br>Latitude: 41.994386º<br>Longitude: -5.971205º]]></description>
        <styleUrl>#Camino4</styleUrl>
        <Point>
          <coordinates>-5.971205,41.994386,730</coordinates>
        </Point>
      </Placemark>
    </Folder>
    <Placemark id="track">
      <name>Pathway</name>
      <visibility>1</visibility>
      <open>1</open>
      <styleUrl>#Camino4</styleUrl>
      <LineString>
        <tessellate>1</tessellate>
        <altitudeMode>clampToGround</altitudeMode>
        <coordinates>
-5.992096,37.385441,20 -5.992103,37.385163,19 -5.992599,37.385163,18 -5.992885,37.385162,17 -5.993389,37.385094,18 -5.993582,37.385018,19 -5.993900,37.384977,18 -5.993819,37.384566,19 -5.993742,37.384197,18 -5.993698,37.384016,18 -5.993785,37.383896,17 -5.993948,37.383639,16 -5.994179,37.383579,15 -5.994244,37.383556,15 -5.994587,37.383492,14 -5.994879,37.383385,14 -5.995322,37.383314,14 -5.995531,37.383297,13 -5.995666,37.383144,11 -5.995936,37.383044,7 -5.996113,37.382975,4 -5.996304,37.383125,5 -5.996368,37.383236,6 -5.996389,37.383236,6 -5.996454,37.383213,5 -5.996454,37.383190,5 -5.996561,37.383106,4 -5.996625,37.383064,3 -5.996711,37.383018,2 -5.996733,37.383041,3 -5.996776,37.383083,3 -5.996797,37.383083,3 -5.996819,37.383083,3 -5.996926,37.383064,2 -5.996947,37.383064,2 -5.996969,37.383064,2 -5.996990,37.383064,2 -5.997076,37.383106,2 -5.997183,37.383236,3 -5.997205,37.383255,3 -5.997269,37.383297,3 -5.997291,37.383297,3 -5.997312,37.383297,3 -5.997334,37.383320,3 -5.997462,37.383408,3 -5.997484,37.383450,3 -5.997570,37.383533,2 -5.997612,37.383556,2 -5.997677,37.383621,2 -5.997698,37.383640,2 -5.997741,37.383686,2 -5.997913,37.383858,2 -5.997999,37.383877,2 -5.998063,37.383900,2 -5.998085,37.383965,2 -5.998213,37.384071,3 -5.998321,37.384155,3 -5.998428,37.384327,3 -5.998492,37.384373,2 -5.998535,37.384392,2 -5.998535,37.384415,2 -5.998578,37.384438,2 -5.998664,37.384521,2 -5.998685,37.384563,2 -5.998771,37.384609,2 -5.998878,37.384716,3 -5.998943,37.384800,4 -5.999029,37.384907,5 -5.999157,37.384995,6 -5.999222,37.385059,6 -5.999286,37.385101,7 -5.999329,37.385143,7 -5.999351,37.385166,7 -5.999372,37.385208,7 -5.999393,37.385273,8 -5.999501,37.385338,8 -5.999565,37.385403,8 -5.999565,37.385509,9 -5.999544,37.385574,9 -5.999587,37.385616,9 -5.999758,37.385746,9 -5.999887,37.385853,9 -5.999930,37.385872,9 -5.999951,37.385895,9 -5.999973,37.385937,9 -5.999994,37.385960,9 -6.000123,37.386066,9 -6.000144,37.386066,9 -6.000209,37.386131,9 -6.000359,37.386280,10 -6.000509,37.386410,5 -6.000638,37.386517,5 -6.000745,37.386623,5 -6.000853,37.386730,5 -6.001003,37.386860,4 -6.001132,37.386967,3 -6.001303,37.387074,1 -6.001453,37.387074,0 -6.001604,37.387074,12 -6.001625,37.387032,2 -6.001689,37.386967,2 -6.001797,37.386883,2 -6.001904,37.386730,2 -6.002033,37.386604,2 -6.002140,37.386497,2 -6.002247,37.386368,3 -6.002290,37.386303,3 -6.002376,37.386215,4 -6.002483,37.386089,7 -6.002634,37.385937,9 -6.002762,37.385788,11 -6.002762,37.385723,12 -6.002827,37.385700,12 -6.002934,37.385593,13 -6.003084,37.385422,15 -6.003256,37.385357,15 -6.003449,37.385338,15 -6.003535,37.385273,15 -6.003556,37.385231,15 -6.003599,37.385273,15 -6.003664,37.385315,15 -6.003857,37.385422,15 -6.004050,37.385529,14 -6.004221,37.385658,14 -6.004393,37.385788,14 -6.004543,37.385960,15 -6.004500,37.386024,14 -6.004500,37.386108,14 -6.004543,37.386238,15 -6.004629,37.386326,14 -6.004672,37.386387,14 -6.004736,37.386452,14 -6.004844,37.386581,14 -6.004951,37.386730,13 -6.005101,37.386925,14 -6.005230,37.387096,14 -6.005402,37.387245,15 -6.005638,37.387463,14 -6.005831,37.387634,14 -6.006153,37.387932,15 -6.006539,37.388512,14 -6.006925,37.388855,12 -6.007075,37.388943,11 -6.007097,37.388920,11 -6.007419,37.388790,11 -6.007483,37.388706,12 -6.007740,37.388535,12 -6.007805,37.388557,12 -6.007826,37.388599,12 -6.007848,37.388599,12 -6.007891,37.388618,12 -6.007955,37.388729,12 -6.008041,37.388771,11 -6.008384,37.388813,11 -6.009457,37.388962,8 -6.010058,37.389179,9 -6.010122,37.389198,9 -6.010273,37.389179,9 -6.010337,37.389156,9 -6.010551,37.389198,10 -6.010766,37.389263,9 -6.010981,37.389263,9 -6.011281,37.389244,9 -6.011496,37.389221,9 -6.011689,37.389198,10 -6.011903,37.389133,10 -6.011946,37.389156,10 -6.012011,37.389244,10 -6.012204,37.389286,10 -6.012268,37.389370,10 -6.012332,37.389370,10 -6.012526,37.389370,10 -6.012654,37.389393,10 -6.012697,37.389435,10 -6.012762,37.389606,10 -6.012762,37.389648,10 -6.012783,37.389671,10 -6.012783,37.389778,10 -6.012890,37.389820,10 -6.013083,37.389885,10 -6.013234,37.390057,10 -6.013298,37.390121,10 -6.013470,37.390163,11 -6.013513,37.390163,11 -6.013706,37.390186,11 -6.013920,37.390209,10 -6.013942,37.390209,9 -6.013942,37.390293,9 -6.013920,37.390423,8 -6.013920,37.390488,8 -6.013920,37.390594,8 -6.013920,37.390617,8 -6.013899,37.390766,8 -6.013899,37.390789,8 -6.013877,37.390938,8 -6.013856,37.391087,8 -6.013834,37.391216,8 -6.013792,37.391346,7 -6.013813,37.391411,7 -6.013985,37.391430,7 -6.014156,37.391495,7 -6.014242,37.391624,6 -6.014349,37.391708,6 -6.014307,37.391880,6 -6.014221,37.392010,6 -6.014156,37.392139,6 -6.014156,37.392181,6 -6.014242,37.392223,6 -6.014371,37.392204,6 -6.014500,37.392117,6 -6.014693,37.392010,5 -6.014907,37.391945,5 -6.015143,37.391945,4 -6.015401,37.391968,4 -6.015658,37.392033,2 -6.015873,37.392075,1 -6.016130,37.392117,0 -6.016324,37.392181,0 -6.016345,37.392204,0 -6.016409,37.392204,0 -6.016624,37.392269,0 -6.016796,37.392311,0 -6.016860,37.392311,0 -6.016924,37.392334,0 -6.017096,37.392376,0 -6.017118,37.392376,0 -6.017203,37.392395,0 -6.017311,37.392418,1 -6.017418,37.392441,2 -6.017590,37.392460,3 -6.017697,37.392506,4 -6.017997,37.392567,6 -6.018190,37.392612,6 -6.018362,37.392654,6 -6.018469,37.392654,5 -6.018641,37.392696,5 -6.018791,37.392719,5 -6.019027,37.392761,5 -6.019263,37.392826,5 -6.019521,37.392891,5 -6.019671,37.392910,5 -6.019821,37.392956,5 -6.020036,37.392998,6 -6.020250,37.393040,6 -6.020465,37.393105,6 -6.020637,37.393147,6 -6.020851,37.393192,6 -6.021066,37.393234,6 -6.021280,37.393299,6 -6.021452,37.393318,6 -6.021624,37.393364,6 -6.021881,37.393425,6 -6.022117,37.393490,6 -6.022353,37.393578,5 -6.022632,37.393661,4 -6.022804,37.393726,4 -6.023061,37.393833,4 -6.023276,37.393921,4 -6.023512,37.394005,4 -6.023812,37.394112,5 -6.024027,37.394199,5 -6.024284,37.394283,6 -6.024563,37.394371,7 -6.024735,37.394413,7 -6.024842,37.394436,8 -6.024864,37.394436,8 -6.024907,37.394455,8 -6.024950,37.394478,8 -6.025164,37.394501,9 -6.025379,37.394566,10 -6.025915,37.394756,6 -6.026087,37.394844,5 -6.026258,37.394928,4 -6.026409,37.394970,5 -6.026645,37.395058,5 -6.026859,37.395123,6 -6.027074,37.395187,6 -6.027267,37.395252,7 -6.027460,37.395313,8 -6.027567,37.395359,8 -6.027696,37.395466,9 -6.027782,37.395550,9 -6.027932,37.395615,9 -6.028104,37.395679,9 -6.028275,37.395744,9 -6.028469,37.395786,9 -6.028619,37.395809,9 -6.028769,37.395809,9 -6.028962,37.395828,9 -6.029155,37.395893,8 -6.029348,37.395981,8 -6.029563,37.396046,8 -6.029735,37.396088,8 -6.029906,37.396152,8 -6.030056,37.396217,8 -6.030228,37.396282,8 -6.030443,37.396366,9 -6.030636,37.396431,9 -6.030829,37.396515,10 -6.030979,37.396561,10 -6.031194,37.396667,10 -6.031322,37.396709,11 -6.031430,37.396751,10 -6.031580,37.396816,10 -6.031730,37.396858,10 -6.031795,37.396904,10 -6.031945,37.396946,10 -6.032095,37.396988,9 -6.032267,37.397053,10 -6.032460,37.397118,10 -6.032588,37.397160,10 -6.032760,37.397224,10 -6.032975,37.397289,11 -6.033103,37.397331,11 -6.033318,37.397438,11 -6.033511,37.397484,11 -6.033704,37.397568,11 -6.033876,37.397633,12 -6.034112,37.397739,14 -6.034262,37.397781,15 -6.034348,37.397827,16 -6.034498,37.397953,18 -6.034520,37.397976,18 -6.034584,37.398170,17 -6.034584,37.398319,16 -6.034606,37.398491,15 -6.034627,37.398663,14 -6.034627,37.398811,14 -6.034563,37.399006,14 -6.034563,37.399326,14 -6.034541,37.399479,13 -6.034541,37.399929,13 -6.034520,37.400208,13 -6.034477,37.400551,13 -6.034391,37.400852,13 -6.034348,37.400959,13 -6.034327,37.400978,13 -6.034348,37.401024,14 -6.034455,37.401196,14 -6.034606,37.401302,15 -6.034606,37.401321,15 -6.034584,37.401451,15 -6.034606,37.401539,15 -6.034670,37.401688,15 -6.034691,37.401688,15 -6.034756,37.401836,15 -6.034799,37.402008,15 -6.034884,37.402138,15 -6.035442,37.402866,16 -6.035335,37.403404,16 -6.035314,37.403725,17 -6.035399,37.403919,17 -6.035421,37.403984,17 -6.035528,37.404392,16 -6.035528,37.404541,16 -6.035593,37.404713,15 -6.035614,37.404819,15 -6.035657,37.404972,15 -6.035678,37.405079,15 -6.035678,37.405098,15 -6.035678,37.405121,15 -6.035743,37.405270,14 -6.035743,37.405464,14 -6.035635,37.405743,15 -6.035550,37.406239,15 -6.035571,37.406517,15 -6.035593,37.406754,15 -6.035635,37.406944,15 -6.035635,37.407074,15 -6.035657,37.407116,15 -6.035657,37.407204,15 -6.035657,37.407288,15 -6.035678,37.407417,15 -6.035678,37.407589,15 -6.035678,37.407719,15 -6.035678,37.407890,15 -6.035678,37.408062,15 -6.035678,37.408188,15 -6.035657,37.408340,15 -6.035635,37.408531,16 -6.035635,37.408661,16 -6.035635,37.408813,16 -6.035614,37.409046,16 -6.035614,37.409111,15 -6.035635,37.409199,15 -6.035678,37.409348,15 -6.035764,37.409477,15 -6.035850,37.409561,16 -6.035936,37.409626,16 -6.036065,37.409672,17 -6.036086,37.409798,18 -6.036086,37.409885,18 -6.036129,37.409950,19 -6.036086,37.410034,19 -6.036000,37.410122,19 -6.035914,37.410206,19 -6.035807,37.410336,18 -6.035743,37.410507,18 -6.035721,37.410637,19 -6.035700,37.410763,19 -6.035700,37.410892,20 -6.035700,37.411045,20 -6.035721,37.411217,21 -6.035721,37.411366,21 -6.035743,37.411514,21 -6.035764,37.411686,22 -6.035786,37.411839,22 -6.035807,37.412010,22 -6.035829,37.412117,22 -6.035850,37.412266,22 -6.035893,37.412395,23 -6.035914,37.412502,23 -6.035936,37.412632,23 -6.035957,37.412762,23 -6.035979,37.412910,23 -6.036022,37.413040,23 -6.036043,37.413147,22 -6.036086,37.413338,21 -6.036129,37.413467,21 -6.036129,37.413555,20 -6.036150,37.413662,20 -6.036172,37.413834,19 -6.036172,37.414005,19 -6.036193,37.414135,19 -6.036215,37.414284,19 -6.036236,37.414433,19 -6.036258,37.414585,19 -6.036279,37.414734,18 -6.036279,37.414906,18 -6.036301,37.414970,18 -6.036322,37.415119,18 -6.036344,37.415249,17 -6.036386,37.415398,17 -6.036386,37.415550,17 -6.036408,37.415722,17 -6.036451,37.415871,17 -6.036472,37.416000,17 -6.036494,37.416195,16 -6.036515,37.416321,16 -6.036537,37.416473,17 -6.036558,37.416599,17 -6.036580,37.416771,18 -6.036558,37.416901,18 -6.036580,37.417053,19 -6.036623,37.417202,19 -6.036644,37.417351,18 -6.036665,37.417522,18 -6.036665,37.417652,18 -6.036687,37.417759,18 -6.036708,37.417912,17 -6.036730,37.418018,17 -6.036751,37.418144,17 -6.036773,37.418274,17 -6.036794,37.418381,17 -6.036816,37.418533,17 -6.036837,37.418640,17 -6.036837,37.418659,17 -6.036880,37.418770,17 -6.036923,37.418941,17 -6.036944,37.419067,16 -6.037009,37.419220,16 -6.036966,37.419392,15 -6.036966,37.419518,15 -6.036987,37.419647,15 -6.037009,37.419800,15 -6.037030,37.419926,15 -6.037052,37.420078,16 -6.037073,37.420227,16 -6.037095,37.420357,16 -6.037116,37.420486,17 -6.037116,37.420612,17 -6.037159,37.420765,17 -6.037202,37.420937,17 -6.037223,37.421062,17 -6.037245,37.421192,17 -6.037266,37.421322,17 -6.037288,37.421516,17 -6.037309,37.421665,17 -6.037309,37.421814,17 -6.037331,37.421944,17 -6.037352,37.422073,18 -6.037374,37.422222,17 -6.037395,37.422417,17 -6.037416,37.422588,17 -6.037438,37.422760,17 -6.037481,37.422932,16 -6.037502,37.423103,16 -6.037524,37.423233,16 -6.037545,37.423382,16 -6.037588,37.423618,15 -6.037610,37.423790,15 -6.037652,37.424004,15 -6.037674,37.424175,16 -6.037695,37.424389,16 -6.037717,37.424541,16 -6.037738,37.424667,16 -6.037760,37.424797,16 -6.037803,37.424969,16 -6.037824,37.425182,16 -6.037867,37.425354,16 -6.037889,37.425549,16 -6.037910,37.425697,16 -6.037931,37.425850,16 -6.037953,37.426022,16 -6.037996,37.426235,16 -6.038017,37.426430,15 -6.038039,37.426601,15 -6.038082,37.426727,15 -6.038146,37.426922,15 -6.038189,37.427071,15 -6.038210,37.427181,15 -6.038232,37.427330,15 -6.038253,37.427479,15 -6.038275,37.427631,15 -6.038253,37.427780,15 -6.038275,37.427910,15 -6.038318,37.428123,16 -6.038318,37.428295,16 -6.038339,37.428467,16 -6.038339,37.428574,16 -6.038339,37.428661,16 -6.038361,37.428703,16 -6.038361,37.428726,16 -6.038382,37.428959,16 -6.038404,37.429153,15 -6.038446,37.429325,15 -6.038468,37.429539,14 -6.038511,37.429710,14 -6.038532,37.429775,14 -6.038597,37.429817,14 -6.038704,37.429947,14 -6.038790,37.430054,14 -6.038768,37.430225,13 -6.038768,37.430271,13 -6.038747,37.430290,13 -6.038704,37.430397,13 -6.038682,37.430443,12 -6.038661,37.430462,12 -6.038725,37.430504,13 -6.038704,37.430676,13 -6.038704,37.430786,13 -6.038704,37.430912,14 -6.038725,37.431000,14 -6.038725,37.431042,14 -6.038725,37.431084,14 -6.038725,37.431149,14 -6.038747,37.431236,15 -6.038747,37.431320,15 -6.038768,37.431450,15 -6.038811,37.431580,16 -6.038811,37.431644,16 -6.038833,37.431751,16 -6.038833,37.431816,16 -6.038854,37.431900,16 -6.038854,37.431942,17 -6.038876,37.431988,17 -6.038918,37.432137,17 -6.038918,37.432220,17 -6.038918,37.432350,17 -6.038940,37.432480,17 -6.038961,37.432587,17 -6.038983,37.432716,17 -6.038961,37.432823,17 -6.038876,37.432930,17 -6.038854,37.433060,17 -6.038854,37.433250,17 -6.038876,37.433361,17 -6.038876,37.433510,17 -6.038876,37.433704,18 -6.038854,37.433853,18 -6.038854,37.434048,18 -6.038854,37.434280,19 -6.038854,37.434452,19 -6.038833,37.434605,19 -6.038747,37.434711,19 -6.038682,37.434795,19 -6.038661,37.434818,18 -6.038446,37.434883,18 -6.038232,37.434948,18 -6.037996,37.435013,17 -6.037803,37.435055,17 -6.037588,37.435120,17 -6.037459,37.435184,16 -6.037309,37.435310,16 -6.037202,37.435463,15 -6.037180,37.435612,14 -6.037202,37.435719,14 -6.037202,37.435783,14 -6.037309,37.435997,12 -6.037416,37.436150,12 -6.037524,37.436279,11 -6.037588,37.436363,11 -6.037695,37.436493,11 -6.037803,37.436623,11 -6.037931,37.436749,11 -6.038017,37.436878,11 -